id,name,latitude,longitude,code,population
3040051,les Escaldes,42.50729,1.53414,AD,15853
3041563,Andorra la Vella,42.50779,1.52109,AD,20430
290594,Umm al Qaywayn,25.56473,55.55517,AE,44411
291074,Ras al-Khaimah,25.78953,55.9432,AE,115949
291696,Khawr Fakkan,25.33132,56.34199,AE,33575
292223,Dubai,25.0657,55.17128,AE,1137347
292231,Dibba Al-Fujairah,25.59246,56.26176,AE,30000
292239,Dibba Al-Hisn,25.61955,56.27291,AE,26395
292672,Sharjah,25.33737,55.41206,AE,543733
292688,Ar Ruways,24.11028,52.73056,AE,16000
292878,Al Fujayrah,25.11641,56.34141,AE,62415
292913,Al Ain,24.19167,55.76056,AE,408733
292932,Ajman,25.41111,55.43504,AE,226172
292953,Adh Dhayd,25.28812,55.88157,AE,24716
292968,Abu Dhabi,24.46667,54.36667,AE,603492
1120985,Zaranj,30.95962,61.86037,AF,49851
1123004,Taloqan,36.73605,69.53451,AF,64256
1125155,Shindand,33.30294,62.1474,AF,29264
1125444,Shibirghan,36.66757,65.7529,AF,55641
1125896,Shahrak,34.10737,64.3052,AF,15967
1127110,Sar-e Pul,36.21544,65.93249,AF,52121
1127628,Sang-e Charak,35.84972,66.43694,AF,15377
1127768,Aibak,36.26468,68.01551,AF,47823
1128265,Rustaq,37.12604,69.83045,AF,25636
1129516,Qarqin,37.41853,66.04358,AF,15018
1129648,Qarawul,37.21959,68.7802,AF,24544
1130490,Pul-e Khumri,35.94458,68.71512,AF,56369
1131316,Paghman,34.58787,68.95091,AF,49157
1132495,Nahrin,36.0649,69.13343,AF,22363
1133453,Maymana,35.92139,64.78361,AF,75900
1133574,Mehtar Lam,34.67139,70.20944,AF,17345
1133616,Mazar-e Sharif,36.70904,67.11087,AF,303282
1134720,Lashkar Gah,31.59382,64.37161,AF,43934
1135158,Kushk,33.29565,61.95221,AF,16952
1135689,Kunduz,36.72895,68.857,AF,161902
1136469,Khost,33.33951,69.92041,AF,96123
1136575,Khulm,36.69736,67.69826,AF,64933
1136863,Khash,31.52919,62.79055,AF,15133
1137168,Khanabad,36.6825,69.11556,AF,71531
1137807,Karukh,34.48108,62.5863,AF,17484
1138336,Kandahar,31.61332,65.71013,AF,391190
1138958,Kabul,34.52813,69.17233,AF,3043532
1139715,Jalalabad,34.42647,70.45153,AF,200331
1139807,Jabal os Saraj,35.11833,69.23778,AF,15032
1140026,Herat,34.34817,62.19967,AF,272806
1141089,Ghormach,35.73062,63.78264,AF,30000
1141269,Ghazni,33.55391,68.42096,AF,141000
1141540,Gereshk,31.82089,64.57005,AF,43588
1141857,Gardez,33.59744,69.22592,AF,103601
1142170,Fayzabad,37.11664,70.58002,AF,44421
1142264,Farah,32.37451,62.11638,AF,43561
1142404,Kafir Qala,34.66667,61.06667,AF,18086
1145352,Charikar,35.01361,69.17139,AF,53676
1147066,Baraki Barak,33.96744,68.9492,AF,22305
1147242,Bamyan,34.82156,67.82734,AF,61863
1147290,Balkh,36.75635,66.8972,AF,114883
1147540,Baghlan,36.13068,68.70829,AF,108449
1148106,Art Khwajah,37.08571,69.47958,AF,18623
1148205,Asmar,35.03333,71.35809,AF,15708
1148311,Asadabad,34.87311,71.14697,AF,48400
1148658,Andkhoy,36.95293,65.12376,AF,29208
1429434,Bazarak,35.31292,69.51519,AF,65000
1469706,Markaz-e Woluswali-ye Achin,34.12583,70.70778,AF,15098
6692413,Cool urhajo,34.26545,67.34516,AF,58525
3576022,Saint John's,17.11717,-61.84573,AG,24226
3573374,The Valley,18.21704,-63.05783,AI,2035
363243,Sarande,39.87556,20.00528,AL,15147
782661,Kukes,42.07694,20.42194,AL,17832
782756,Korce,40.61861,20.78083,AL,58259
783148,Gjirokaster,40.07583,20.13889,AL,23437
783263,Elbasan,41.1125,20.08222,AL,100903
783493,Burrel,41.61028,20.00889,AL,15405
3183719,Vlore,40.46667,19.48972,AL,89546
3183875,Tirana,41.3275,19.81889,AL,374801
3184081,Shkoder,42.06828,19.51258,AL,88245
3184517,Patos Fshat,40.64278,19.65083,AL,22679
3184862,Lushnje,40.94194,19.705,AL,41469
3184935,Lezhe,41.78361,19.64361,AL,18695
3185012,Lac,41.63556,19.71306,AL,24825
3185060,Kucove,40.80028,19.91667,AL,18166
3185082,Kruje,41.50917,19.79278,AL,21286
3185211,Kavaje,41.18556,19.55694,AL,29354
3185670,Fier-Cifci,40.71667,19.56667,AL,60995
3185672,Fier,40.72389,19.55611,AL,56297
3185728,Durres,41.32306,19.44139,AL,122034
3186084,Berat,40.70583,19.95222,AL,46866
174875,Kapan,39.20755,46.40576,AM,33160
174895,Goris,39.51288,46.33816,AM,20379
174972,Hats'avan,39.46405,45.97047,AM,15208
174979,Artashat,39.96144,44.54447,AM,20562
174991,Ararat,39.83166,44.70489,AM,28832
616052,Yerevan,40.18111,44.51361,AM,1093485
616062,Ejmiatsin,40.16557,44.29462,AM,49513
616199,Spitak,40.83221,44.26731,AM,15059
616250,Sevan,40.5484,44.94868,AM,17083
616435,Masis,40.06762,44.43591,AM,18911
616530,Vanadzor,40.80456,44.4939,AM,101098
616599,Gavarr,40.35398,45.12386,AM,21680
616629,Hrazdan,40.49748,44.7662,AM,40795
616631,Armavir,40.15446,44.03815,AM,25963
616635,Gyumri,40.7942,43.84528,AM,148381
616877,Ashtarak,40.2991,44.36204,AM,18779
617026,Abovyan,40.26741,44.62656,AM,35673
145531,Saurimo,-9.66078,20.39155,AO,40498
145724,Lucapa,-8.41915,20.74466,AO,20115
876177,Luau,-10.70727,22.22466,AO,18465
2236568,Uige,-7.60874,15.06131,AO,60008
2236967,Soio,-6.1349,12.36894,AO,67491
2239001,Nzeto,-7.23116,12.8666,AO,18352
2239076,N'dalatando,-9.29782,14.91162,AO,383100
2239520,Mbanza Congo,-6.26703,14.2401,AO,24220
2239862,Malanje,-9.54015,16.34096,AO,87046
2240449,Luanda,-8.83682,13.23432,AO,2776168
2242001,Caxito,-8.57848,13.66425,AO,28224
2243271,Cabinda,-5.55,12.2,AO,66020
3346015,Sumbe,-11.20605,13.84371,AO,33277
3347019,Namibe,-15.19611,12.15222,AO,80149
3347353,Menongue,-14.6585,17.69099,AO,32203
3347719,Luena,-11.78333,19.91667,AO,21115
3347762,Lubango,-14.91717,13.4925,AO,102541
3347853,Longonjo,-12.90667,15.25333,AO,24346
3347939,Lobito,-12.3644,13.53601,AO,207932
3348078,Cuito,-12.38333,16.93333,AO,113624
3348313,Huambo,-12.77611,15.73917,AO,226145
3350246,Catumbela,-12.43002,13.54677,AO,16977
3350372,Catabola,-12.15,17.28333,AO,18855
3351014,Camacupa,-12.01667,17.48333,AO,19150
3351024,Caluquembe,-13.78333,14.68333,AO,30300
3351500,Caala,-12.8525,15.56056,AO,21205
3351663,Benguela,-12.57626,13.40547,AO,151226
3427213,Zarate,-34.09814,-59.02858,AR,88781
3427388,Villa Ocampo,-28.48752,-59.35515,AR,19101
3427408,Villa Lugano,-34.67907,-58.47263,AR,114000
3427428,Villaguay,-31.8653,-59.02689,AR,32027
3427431,Villa Gesell,-37.26394,-56.97304,AR,23257
3427761,Tigre,-34.42603,-58.57962,AR,31106
3427833,Tandil,-37.32167,-59.13316,AR,104325
3428068,San Vicente,-26.61667,-54.13333,AR,38247
3428071,Santo Tome,-28.54939,-56.04077,AR,22634
3428359,Santa Elena,-30.94768,-59.78696,AR,18410
3428577,San Pedro,-26.62207,-54.10842,AR,23736
3428708,San Luis del Palmar,-27.5079,-58.55454,AR,15347
3428759,San Lorenzo,-28.13306,-58.76733,AR,47626
3428975,San Javier,-30.57781,-59.9317,AR,15606
3428992,San Isidro,-34.47145,-58.50776,AR,45190
3429403,Saladas,-28.25384,-58.62591,AR,18349
3429576,Retiro,-34.58333,-58.38333,AR,38635
3429577,Resistencia,-27.46056,-58.98389,AR,387158
3429594,Reconquista,-29.15,-59.65,AR,90184
3429652,Quilmes,-34.72418,-58.25265,AR,518788
3429732,Puerto Rico,-26.79598,-55.02402,AR,17491
3429777,Puerto Iguazu,-25.59912,-54.57355,AR,32038
3429786,Puerto Esperanza,-26.01517,-54.67306,AR,15579
3429790,Puerto Eldorado,-26.40843,-54.69463,AR,54189
3429886,Posadas,-27.36708,-55.89608,AR,323739
3429902,Pontevedra,-34.74974,-58.68697,AR,33515
3429949,Pirane,-25.73239,-59.10879,AR,19124
3430104,Paso de los Libres,-29.71251,-57.08771,AR,43805
3430340,Obera,-27.48706,-55.11994,AR,56528
3430443,Necochea,-38.54726,-58.73675,AR,80478
3430545,Moron,-34.65344,-58.61975,AR,319934
3430598,Monte Caseros,-30.25359,-57.63626,AR,24671
3430601,Montecarlo,-26.5662,-54.757,AR,22229
3430708,Mercedes,-34.65145,-59.43068,AR,52949
3430709,Mercedes,-29.18416,-58.07519,AR,30649
3430863,Mar del Plata,-38.00228,-57.55754,AR,553935
3430988,Lujan,-34.57028,-59.105,AR,81749
3432043,La Plata,-34.92145,-57.95453,AR,694167
3432079,La Paz,-30.74485,-59.64566,AR,24716
3433349,Jardin America,-27.04346,-55.22698,AR,24905
3433658,Gualeguaychu,-33.00937,-58.51722,AR,78676
3433663,Gualeguay,-33.14156,-59.30966,AR,33120
3433715,Goya,-29.14395,-59.2651,AR,70245
3433753,Gobernador Ingeniero Valentin Virasoro,-28.05,-56.03333,AR,28756
3433803,General Jose de San Martin,-26.53743,-59.34158,AR,31758
3433836,Garupa,-27.48171,-55.82921,AR,28814
3433899,Formosa,-26.17753,-58.17814,AR,221383
3433901,Fontana,-27.41813,-59.02392,AR,26745
3433956,Federal,-30.95465,-58.78326,AR,16333
3434095,Esquina,-30.01444,-59.52719,AR,26399
3434291,El Soberbio,-27.29847,-54.19877,AR,19571
3435038,Dolores,-36.31321,-57.67918,AR,25190
3435103,Curuzu Cuatia,-29.79171,-58.0546,AR,36390
3435217,Corrientes,-27.4806,-58.8341,AR,339067
3435261,Concordia,-31.39296,-58.02089,AR,145210
3435264,Concepcion del Uruguay,-32.48249,-58.23722,AR,67895
3435356,Colegiales,-34.57365,-58.44924,AR,57000
3435486,Chajari,-30.75048,-57.97962,AR,30655
3435810,Campana,-34.16874,-58.95914,AR,81612
3435910,Buenos Aires,-34.61315,-58.37723,AR,13076300
3436124,Barranqueras,-27.48132,-58.93925,AR,50823
3436199,Azul,-36.77698,-59.85854,AR,53941
3436230,Avellaneda,-29.11761,-59.65834,AR,23077
3436287,Aristobulo del Valle,-27.09625,-54.89626,AR,20683
3832132,Zapala,-38.89916,-70.05442,AR,31534
3832260,Yerba Buena,-26.81667,-65.31667,AR,50783
3832647,Villa Regina,-39.1,-67.06667,AR,31209
3832653,Villa Paula de Sarmiento,-31.4933,-68.53838,AR,19092
3832662,Villa Nueva,-32.43293,-63.24763,AR,16841
3832694,Villa Maria,-32.40751,-63.24016,AR,92453
3832756,Villa Dolores,-31.94585,-65.18958,AR,28009
3832778,Villa Constitucion,-33.22778,-60.3297,AR,44271
3832791,Villa Carlos Paz,-31.42414,-64.49778,AR,69451
3832811,Villa Angela,-27.57383,-60.71526,AR,43511
3832815,Villa Allende,-31.29458,-64.29538,AR,21683
3832899,Viedma,-40.81345,-62.99668,AR,48940
3832934,Victoria,-32.61841,-60.15478,AR,25139
3833027,Vera,-29.4593,-60.21261,AR,19797
3833062,Venado Tuerto,-33.74556,-61.96885,AR,72340
3833112,Veinticinco de Mayo,-35.4323,-60.17271,AR,24668
3833367,Ushuaia,-54.8,-68.3,AR,58028
3833412,Unquillo,-31.23073,-64.31615,AR,15369
3833794,Tres Isletas,-26.34067,-60.43207,AR,24747
3833859,Tres Arroyos,-38.37394,-60.27978,AR,47136
3833883,Trelew,-43.24895,-65.30505,AR,93442
3834502,Termas de Rio Hondo,-27.49362,-64.85972,AR,27838
3834601,Tartagal,-22.51637,-63.80131,AR,60819
3834813,Tafi Viejo,-26.73201,-65.25921,AR,48459
3834971,Sunchales,-30.94404,-61.56148,AR,18757
3835793,Santo Tome,-31.66274,-60.7653,AR,59072
3835869,Santiago del Estero,-27.79511,-64.26149,AR,354692
3835994,Santa Rosa,-36.61667,-64.28333,AR,111424
3836194,Santa Lucia,-31.53987,-68.49503,AR,43565
3836277,Santa Fe de la Vera Cruz,-31.63333,-60.7,AR,489505
3836564,San Salvador de Jujuy,-24.19457,-65.29712,AR,305891
3836620,San Ramon de la Nueva Oran,-23.13705,-64.32426,AR,74059
3836669,San Rafael,-34.61772,-68.33007,AR,109163
3836772,San Pedro,-24.23127,-64.86614,AR,58430
3836846,San Nicolas de los Arroyos,-33.33578,-60.22523,AR,127742
3836873,San Miguel de Tucuman,-26.82414,-65.2226,AR,781023
3836951,San Martin de los Andes,-40.15789,-71.35337,AR,23519
3836992,San Martin,-33.08103,-68.46814,AR,82549
3837056,San Luis,-33.29501,-66.33563,AR,183982
3837124,San Justo,-30.78913,-60.59189,AR,21809
3837213,San Juan,-31.5375,-68.53639,AR,447048
3837240,San Jose de Jachal,-30.24057,-68.74693,AR,21018
3837441,San Jorge,-31.89618,-61.85984,AR,16873
3837675,San Francisco,-31.42797,-62.08266,AR,59062
3837702,San Fernando del Valle de Catamarca,-28.46957,-65.78524,AR,188812
3837980,San Antonio Oeste,-40.73193,-64.94769,AR,16966
3838233,Salta,-24.7859,-65.41166,AR,512686
3838506,Rufino,-34.26827,-62.71262,AR,18361
3838583,Rosario,-32.94682,-60.63932,AR,1173533
3838793,Rio Tercero,-32.17301,-64.11405,AR,53389
3838797,Rio Segundo,-31.6526,-63.9099,AR,18155
3838859,Rio Gallegos,-51.62261,-69.21813,AR,85700
3838874,Rio Cuarto,-33.13067,-64.34992,AR,153757
3838902,Rio Ceballos,-31.16486,-64.32241,AR,16632
3839307,Rawson,-43.30016,-65.10228,AR,26335
3839479,Rafaela,-31.25033,-61.4867,AR,88713
3839490,Quitilipi,-26.86913,-60.21683,AR,32083
3839982,Punta Alta,-38.87588,-62.07359,AR,57209
3840092,Puerto Madryn,-42.7692,-65.03851,AR,64555
3840300,Presidencia Roque Saenz Pena,-26.78522,-60.43876,AR,81879
3840860,Pocito,-31.68333,-68.58333,AR,40969
3840885,Plottier,-38.96667,-68.23333,AR,25186
3841490,Pergamino,-33.88995,-60.57357,AR,87652
3841500,Perez,-32.99835,-60.76791,AR,24436
3841956,Parana,-31.73197,-60.5238,AR,262295
3842190,Palpala,-24.25647,-65.21163,AR,48199
3842670,Olavarria,-36.89272,-60.32254,AR,86320
3842881,Nueve de Julio,-35.44437,-60.88313,AR,34718
3843123,Neuquen,-38.95161,-68.0591,AR,242092
3843619,Morteros,-30.71164,-61.99862,AR,15129
3843803,Monteros,-27.16741,-65.49832,AR,23771
3844421,Mendoza,-32.89084,-68.82717,AR,876884
3844899,Marcos Juarez,-32.6978,-62.10672,AR,24226
3845330,Machagai,-26.92614,-60.04955,AR,28070
3846864,Lincoln,-34.86649,-61.5302,AR,41808
3846915,Libertador General San Martin,-23.80644,-64.78757,AR,49267
3848687,Las Brenas,-27.08966,-61.08161,AR,26955
3848950,La Rioja,-29.41105,-66.85067,AR,162620
3851331,La Falda,-31.08841,-64.48987,AR,15112
3852374,La Calera,-31.34377,-64.33529,AR,24796
3852468,Laboulaye,-34.12662,-63.39119,AR,19908
3853354,Junin,-34.58382,-60.94332,AR,85007
3853491,Joaquin V. Gonzalez,-25.08333,-64.18333,AR,19185
3853510,Jesus Maria,-30.98153,-64.09424,AR,26825
3854895,Granadero Baigorria,-32.85683,-60.71754,AR,32427
3854985,Gobernador Galvez,-33.03016,-60.64045,AR,74650
3855065,General Roca,-39.03333,-67.58333,AR,73212
3855074,General Pinedo,-27.31667,-61.28333,AR,15741
3855075,General Pico,-35.65662,-63.75682,AR,57029
3855116,General Enrique Mosconi,-22.59588,-63.81255,AR,19811
3855244,Galvez,-32.02927,-61.22103,AR,18374
3855554,Firmat,-33.45937,-61.4832,AR,18294
3855666,Famailla,-27.05413,-65.40329,AR,30951
3855974,Esquel,-42.91147,-71.31947,AR,28486
3856022,Esperanza,-31.4488,-60.93173,AR,35885
3856231,Embarcacion,-23.21003,-64.09965,AR,23961
3856235,Embalse,-32.18,-64.41809,AR,15900
3858765,El Bolson,-41.96051,-71.53336,AR,15537
3859384,Diamante,-32.06641,-60.63837,AR,19545
3859512,Dean Funes,-30.42036,-64.34984,AR,20164
3859552,Cutral-Co,-38.93424,-69.23052,AR,47380
3859828,Cruz del Eje,-30.72644,-64.80387,AR,28166
3859904,Crespo,-32.02873,-60.30658,AR,18296
3859965,Cosquin,-31.24508,-64.46563,AR,19070
3860164,Coronel Suarez,-37.45467,-61.93343,AR,27000
3860217,Coronda,-31.97263,-60.91983,AR,16975
3860259,Cordoba,-31.4135,-64.18105,AR,1428214
3860443,Comodoro Rivadavia,-45.86413,-67.49656,AR,140850
3861056,Cipolletti,-38.93392,-67.99032,AR,75078
3861061,Cinco Saltos,-38.82225,-68.06293,AR,19819
3861344,Chivilcoy,-34.89566,-60.01667,AR,54514
3861416,Chimbas,-31.48333,-68.53333,AR,73829
3861445,Chilecito,-29.16195,-67.4974,AR,42248
3861678,Charata,-27.21438,-61.18795,AR,27813
3861953,Chacabuco,-34.64167,-60.47389,AR,34587
3862144,Centenario,-38.82955,-68.1318,AR,28956
3862240,Caucete,-31.65179,-68.28105,AR,33609
3862254,Catriel,-37.87907,-67.7956,AR,15169
3862320,Castelli,-25.94679,-60.61947,AR,36588
3862351,Casilda,-33.04417,-61.16806,AR,32002
3862655,Carcarana,-32.85679,-61.15331,AR,15619
3862738,Capitan Bermudez,-32.82262,-60.71852,AR,27060
3862981,Canada de Gomez,-32.81636,-61.39493,AR,36000
3863379,Caleta Olivia,-46.43929,-67.52814,AR,36077
3864331,Bell Ville,-32.62591,-62.68873,AR,35105
3864375,Bella Vista,-27.03424,-65.30196,AR,15126
3865086,Bahia Blanca,-38.71959,-62.27243,AR,276546
3865385,Arroyo Seco,-33.15489,-60.50863,AR,20008
3865424,Arroyito,-31.42022,-63.05002,AR,19577
3865840,Anatuya,-28.46064,-62.83472,AR,20261
3866163,Alta Gracia,-31.65292,-64.42826,AR,40384
3866242,Allen,-38.97736,-67.82714,AR,26083
3866367,Alderetes,-26.81667,-65.13333,AR,38466
3866425,Albardon,-31.43722,-68.52556,AR,20413
3866496,Aguilares,-27.4338,-65.61427,AR,32494
6693230,Villa Santa Rita,-34.61082,-58.481,AR,34000
7116866,Villa Mercedes,-33.67571,-65.45783,AR,96781
7647007,San Carlos de Bariloche,-41.14557,-71.30822,AR,95394
10172104,Adrogue,-34.80041,-58.38384,AR,28265
5881576,Pago Pago,-14.27806,-170.7025,AS,11500
2760910,Wolfsberg,46.84056,14.84417,AT,25610
2761353,Wiener Neustadt,47.8,16.25,AT,38481
2761369,Vienna,48.20849,16.37208,AT,1691468
2761524,Wels,48.16667,14.03333,AT,57946
2761669,Weinzierl bei Krems,48.4,15.6,AT,24092
2762372,Villach,46.61028,13.85583,AT,58882
2763423,Traun,48.22656,14.23459,AT,23959
2763460,Traiskirchen,48.01485,16.29324,AT,16212
2763795,Ternitz,47.71565,16.03575,AT,15153
2764359,Steyr,48.04274,14.42127,AT,39566
2764786,Spittal an der Drau,46.8,13.5,AT,16363
2765388,Schwechat,48.13333,16.46667,AT,15711
2766429,Sankt Poelten,48.2,15.63333,AT,49001
2766824,Salzburg,47.79941,13.04399,AT,150269
2766922,Saalfelden am Steinernen Meer,47.42681,12.848,AT,16119
2771335,Modling,48.08605,16.28921,AT,20710
2772173,Lustenau,47.42642,9.65851,AT,20218
2772400,Linz,48.30639,14.28611,AT,181162
2772635,Leonding,48.27965,14.2533,AT,22736
2772649,Leoben,47.3765,15.09144,AT,24809
2773300,Kufstein,47.58333,12.16667,AT,16115
2773549,Krems an der Donau,48.40921,15.61415,AT,23932
2773913,Klosterneuburg,48.30521,16.32522,AT,24843
2774326,Klagenfurt am Woerthersee,46.62472,14.30528,AT,90610
2774773,Kapfenberg,47.44458,15.29331,AT,21819
2775220,Innsbruck,47.26266,11.39454,AT,112467
2776951,Hallein,47.68333,13.1,AT,18980
2778067,Graz,47.06667,15.45,AT,222326
2779674,Feldkirch,47.23306,9.6,AT,31082
2780741,Dornbirn,47.41427,9.74195,AT,43013
2781503,Bregenz,47.50311,9.7471,AT,27611
2781520,Braunau am Inn,48.25628,13.04343,AT,16403
2782067,Baden,48.00543,16.23264,AT,24893
2782555,Amstetten,48.1229,14.87206,AT,22832
3323063,Ansfelden,47.965,13.04944,AT,15673
2058430,Whyalla,-33.03268,137.56483,AU,19645
2062338,Rockingham,-32.27682,115.72978,AU,108022
2062944,Prospect,-34.88241,138.5933,AU,20217
2063042,Port Hedland,-20.31215,118.61059,AU,15044
2063523,Perth,-31.95224,115.8614,AU,1896548
2065176,Murray Bridge,-35.11986,139.27345,AU,19577
2065594,Mount Isa,-20.72523,139.49727,AU,22785
2065740,Morphett Vale,-35.13333,138.51667,AU,22602
2067119,Mandurah,-32.5269,115.7217,AU,83294
2068079,Kwinana,-32.23013,115.78128,AU,30433
2068823,Kalgoorlie,-30.74614,121.4742,AU,31107
2070571,Gosnells,-32.081,116.0054,AU,17277
2070998,Geraldton,-28.77897,114.61459,AU,26872
2071059,Gawler,-34.60251,138.74902,AU,20006
2071223,Fremantle,-32.05,115.76667,AU,24835
2073124,Darwin,-12.46113,130.84185,AU,129062
2075265,Busselton,-33.65249,115.3455,AU,21898
2075432,Bunbury,-33.32711,115.64137,AU,68248
2077579,Armadale,-32.14607,116.0093,AU,62296
2077895,Alice Springs,-23.69748,133.88362,AU,25186
2077963,Albany,-35.0031,117.86595,AU,33650
2078025,Adelaide,-34.92866,138.59863,AU,1225235
2143069,Woodridge,-27.63333,153.1,AU,20650
2143285,Wodonga,-36.12179,146.88809,AU,31605
2144095,Werribee,-37.9,144.66667,AU,37737
2144528,Warrnambool,-38.38176,142.48799,AU,33982
2144728,Wantirna South,-37.88333,145.21667,AU,17477
2144764,Wangaratta,-36.35846,146.32056,AU,16845
2145110,Wagga Wagga,-35.12577,147.35375,AU,46913
2146108,Traralgon,-38.19528,146.5415,AU,21960
2146142,Townsville,-19.26639,146.80569,AU,196219
2146268,Toowoomba,-27.56056,151.95386,AU,131258
2146793,Thornbury,-37.75,145,AU,17434
2146827,Thomastown,-37.68333,145.01667,AU,20331
2147357,Tarneit,-37.86667,144.66667,AU,21690
2147381,Taree,-31.91099,152.45387,AU,16621
2147497,Tamworth,-31.09048,150.92905,AU,47597
2147714,Sydney,-33.86785,151.20732,AU,4627345
2147849,Surfers Paradise,-28.00274,153.42999,AU,18501
2147892,Sunnybank,-27.58333,153.05,AU,16442
2147914,Sunbury,-37.57742,144.72607,AU,29925
2148398,Port Stephens,-32.71314,152.06623,AU,27531
2148591,Springvale,-37.94853,145.15274,AU,19771
2148928,Southport,-27.96724,153.39796,AU,28315
2148997,South Grafton,-29.7076,152.92627,AU,16399
2149645,Shepparton,-36.38047,145.39867,AU,38773
2149975,Seaford,-38.1,145.13333,AU,16033
2150660,Saint Kilda,-37.8676,144.98099,AU,17795
2150717,Saint Albans,-37.73333,144.8,AU,35091
2150894,Rowville,-37.93333,145.23333,AU,34145
2151437,Rockhampton,-23.38032,150.50595,AU,61724
2151649,Richmond,-37.81819,145.00176,AU,26121
2151716,Reservoir,-37.71667,145,AU,47637
2152286,Queanbeyan,-35.35493,149.232,AU,40661
2152329,Quakers Hill,-33.73333,150.88333,AU,25017
2152558,Preston,-37.75,145.01667,AU,29925
2152659,Port Macquarie,-31.43084,152.90894,AU,41491
2152819,Point Cook,-37.91482,144.75088,AU,32413
2153951,Pakenham South,-38.13333,145.51667,AU,32911
2154219,Orange,-33.28397,149.10018,AU,39329
2154787,Nowra,-34.88422,150.60036,AU,34479
2155001,Northcote,-37.76667,145,AU,22920
2155204,Noble Park,-37.96667,145.16667,AU,28377
2155472,Newcastle,-32.92715,151.77647,AU,308308
2155542,Nerang,-27.98941,153.33633,AU,16256
2155718,Narre Warren,-38.03333,145.3,AU,25882
2155787,Narangba,-27.20338,152.95923,AU,16223
2156340,Mulgrave,-37.91667,145.2,AU,17647
2156578,Mount Martha,-38.26667,145.01667,AU,17087
2156643,Mount Gambier,-37.8318,140.77919,AU,23209
2156663,Mount Eliza,-38.18333,145.08333,AU,17248
2156813,Mosman,-33.83902,151.23956,AU,26236
2156878,Mornington,-38.21792,145.03876,AU,22421
2156934,Morayfield,-27.10876,152.94907,AU,18020
2157343,Moe,-38.17828,146.26099,AU,15582
2157635,Mill Park,-37.66667,145.06667,AU,30517
2157698,Mildura,-34.18551,142.16251,AU,30016
2158151,Melton,-37.68339,144.58543,AU,35490
2158177,Melbourne,-37.814,144.96332,AU,4246375
2158562,Maryborough,-25.54073,152.70493,AU,21501
2158626,Marrickville,-33.90318,151.15176,AU,23161
2158651,Maroubra,-33.95,151.23333,AU,26538
2159045,Maitland,-32.73308,151.5574,AU,67132
2159220,Mackay,-21.15345,149.16554,AU,74219
2159851,Liverpool,-33.9,150.93333,AU,21317
2160063,Lismore,-28.81354,153.2773,AU,30086
2160188,Lilydale,-37.75,145.35,AU,15649
2160517,Launceston,-41.43876,147.13467,AU,106153
2160560,Lara,-38.02388,144.40617,AU,15520
2160582,Langwarrin,-38.16667,145.16667,AU,21371
2160706,Lalor,-37.66667,145.01667,AU,19873
2161532,Keysborough,-37.99116,145.17385,AU,22700
2161540,Kew,-37.80639,145.03086,AU,23876
2161776,Katoomba,-33.71977,150.30739,AU,18593
2163137,Hornsby,-33.70244,151.09931,AU,19863
2163355,Hobart,-42.87936,147.32941,AU,216656
2163776,Hawthorn South,-37.83333,145.05,AU,21177
2163990,Hampton Park,-38.03333,145.25,AU,23767
2164422,Griffith,-34.28853,146.05093,AU,15455
2164515,Greensborough,-37.70462,145.10302,AU,20214
2164691,Granville,-33.83333,151.01667,AU,22889
2164837,Goulburn,-34.75155,149.72086,AU,20940
2165087,Gold Coast,-28.00029,153.43088,AU,591473
2165200,Glenroy,-37.7,144.93333,AU,19644
2165329,Glenferrie,-37.83333,145.05,AU,21177
2165478,Gladstone,-23.84852,151.25775,AU,30489
2165798,Geelong,-38.14711,144.36069,AU,226034
2166143,Frankston East,-38.13333,145.13333,AU,34457
2166144,Frankston,-38.14458,145.12291,AU,34457
2166309,Forster,-32.18136,152.51715,AU,17591
2167208,Essendon,-37.76667,144.91667,AU,18852
2167279,Epping,-37.65,145.03333,AU,32200
2167280,Epping,-33.77271,151.08184,AU,18969
2167312,Engadine,-34.06564,151.01266,AU,17937
2167445,Eltham,-37.73333,145.15,AU,18162
2167817,Echuca,-36.14057,144.75185,AU,19457
2167949,Earlwood,-33.95,151.1,AU,16564
2168305,Dubbo,-32.24295,148.60484,AU,32327
2168605,Doncaster East,-37.78761,145.14888,AU,27047
2168607,Doncaster,-37.78828,145.12373,AU,18359
2168943,Devonport,-41.17695,146.35152,AU,19317
2169145,Deer Park,-37.76667,144.78333,AU,16204
2169220,Deception Bay,-27.19354,153.02631,AU,16090
2169460,Dandenong,-37.98333,145.2,AU,24919
2169956,Cronulla,-34.06251,151.14961,AU,16754
2170078,Cranbourne,-38.1,145.28333,AU,39419
2170079,Cranbourne,-38.11342,145.28326,AU,18622
2170089,Craigieburn,-37.6,144.95,AU,19728
2171085,Coffs Harbour,-30.29626,153.11351,AU,26353
2171168,Coburg,-37.75,144.96667,AU,24977
2171400,Clayton,-37.91667,145.11667,AU,15543
2171507,Wollongong,-34.424,150.89345,AU,292190
2171845,Cessnock,-32.83211,151.35623,AU,16393
2172111,Castle Hill,-33.73333,151,AU,35389
2172191,Carrum Downs,-38.09968,145.17248,AU,17213
2172264,Carnegie,-37.88333,145.06667,AU,16299
2172303,Carlingford,-33.78269,151.04888,AU,21364
2172311,Caringbah,-34.04726,151.12051,AU,21283
2172517,Canberra,-35.28346,149.12807,AU,367752
2172686,Camberwell,-37.84205,145.0694,AU,19637
2172710,Caloundra,-26.80346,153.12195,AU,38706
2172797,Cairns,-16.92304,145.76625,AU,153075
2172832,Caboolture,-27.08465,152.9511,AU,21478
2173125,Burnie,-41.05584,145.90375,AU,19972
2173323,Bundaberg,-24.86621,152.3479,AU,70826
2173605,Buderim,-26.68443,153.05705,AU,15228
2173741,Brunswick,-37.76667,144.96667,AU,19867
2173911,Broken Hill,-31.9652,141.4512,AU,18430
2174003,Brisbane,-27.46794,153.02809,AU,2189878
2174580,Boronia,-37.86667,145.28333,AU,20825
2175411,Blacktown,-33.76667,150.91667,AU,39000
2176031,Berwick,-38.03333,145.35,AU,44779
2176187,Bendigo,-36.75818,144.28024,AU,100617
2176592,Baulkham Hills,-33.75881,150.99292,AU,33945
2176632,Bathurst,-33.41665,149.5806,AU,33110
2176934,Banora Point,-28.21298,153.53634,AU,27368
2176947,Bankstown,-33.91667,151.03333,AU,30572
2177091,Ballarat,-37.56622,143.84957,AU,97937
2177513,Auburn,-33.85,151.03333,AU,33122
2177565,Ashfield,-33.88834,151.12274,AU,22000
2177671,Armidale,-30.50828,151.67123,AU,22673
2178174,Albury,-36.07494,146.92394,AU,45627
2207259,South Brisbane,-27.48034,153.02049,AU,60000
2207618,Cheltenham,-37.96944,145.04806,AU,20292
2208285,Randwick,-33.91439,151.24895,AU,25819
2208305,Dee Why,-33.75,151.3,AU,17463
2208313,Umina,-33.52314,151.31325,AU,16059
6301965,Palmerston,-12.48602,130.9833,AU,25000
6943558,Bracken Ridge,-27.3171,153.03097,AU,15355
7281782,North Ryde,-33.79677,151.12436,AU,17208
7281807,Hoppers Crossing,-37.88264,144.7003,AU,38108
7281838,Logan City,-27.63917,153.10944,AU,282673
7281839,Carindale,-27.50578,153.10236,AU,15135
7281840,Paramatta,-33.8178,151.00348,AU,18448
7281850,Ferntree Gully,-37.88461,145.29539,AU,24724
7302259,City of Parramatta,-33.81667,151,AU,19745
7302628,Adelaide Hills,-34.91119,138.70735,AU,60394
7302631,Canning Vale,-32.05799,115.91814,AU,23289
7302642,Glenmore Park,-33.79068,150.6693,AU,19200
7932612,Glen Iris,-37.85995,145.05489,AU,23270
7932629,Balwyn North,-37.79086,145.09386,AU,19968
7932636,Carnegie,-37.88867,145.05713,AU,15084
7932638,Malvern East,-37.87397,145.04253,AU,19593
7932646,Brighton East,-37.90232,145.01734,AU,15167
7932654,Booval,-27.61328,152.78944,AU,20540
8015209,St Albans,-37.74496,144.80049,AU,33511
8347325,Endeavour Hills,-37.97695,145.25866,AU,25000
8347717,Clayton,-37.91731,145.13041,AU,15500
8347847,Taylors Lakes,-37.69863,144.78631,AU,16095
8347896,Roxburgh Park,-37.62581,144.92555,AU,19235
8348078,Wyndham Vale,-37.8415,144.54101,AU,17304
8348101,Willetton,-32.05251,115.88782,AU,17243
8348734,Thornbury,-37.75829,145.00514,AU,17434
8349108,Thornlie,-32.06003,115.955,AU,22265
8349243,Hillside,-37.69047,144.74172,AU,16326
8349381,Bundoora,-37.69825,145.05967,AU,25709
9957340,Forest Lake,-27.62563,152.96883,AU,22426
9957350,Sunnybank Hills,-27.61025,153.05388,AU,16830
9972518,Narre Warren South,-38.04369,145.2923,AU,28594
9972522,Dandenong North,-37.96649,145.2081,AU,21910
9972527,Frankston South,-38.16604,145.13643,AU,17360
9972578,Sunshine West,-37.79117,144.81637,AU,16743
9972579,Altona Meadows,-37.88413,144.78367,AU,18746
9972964,West Pennant,-33.7457,151.04764,AU,15967
3577154,Oranjestad,12.52398,-70.02703,AW,29998
3577277,Babijn,12.53333,-69.98333,AW,40627
3577284,Angochi,12.51667,-69.95,AW,29442
3041732,Mariehamn,60.09726,19.93481,AX,10682
146970,Xankandi,39.8177,46.7528,AZ,53100
147059,Ahmadbayli,39.87867,48.39901,AZ,17242
147105,Shushi,39.76006,46.74989,AZ,18662
147271,Salyan,39.59621,48.98479,AZ,36555
147288,Saatli,39.93214,48.36892,AZ,87000
147425,Neftcala,39.3768,49.247,AZ,18661
147429,Nakhchivan,39.20889,45.41222,AZ,64754
147622,Lankaran,38.75428,48.85062,AZ,240300
147982,Imishli,39.87095,48.05995,AZ,34178
148106,Fizuli,39.60094,47.14529,AZ,26765
148290,Dzhalilabad,39.20963,48.49186,AZ,36259
148340,Pushkino,39.45833,48.545,AZ,18182
148354,Beylagan,39.77556,47.61861,AZ,15599
148445,Astara,38.45598,48.87498,AZ,15190
148565,Sirvan,39.93778,48.929,AZ,70220
148619,Agdam,39.99096,46.92736,AZ,39451
584596,Zaqatala,41.6316,46.64479,AZ,18277
584614,Zabrat,40.47746,49.94174,AZ,21396
584649,Yevlakh,40.61832,47.15014,AZ,59036
584716,Yelenendorf,40.58584,46.3189,AZ,17816
584717,Xacmaz,41.46426,48.80565,AZ,37175
584791,Ujar,40.51902,47.65423,AZ,15741
584871,Terter,40.34179,46.93242,AZ,18185
584923,Sumqayit,40.58972,49.66861,AZ,265150
585103,Qaracuxur,40.39667,49.97361,AZ,72989
585152,Shamkhor,40.82975,46.0178,AZ,35421
585156,Shamakhi,40.63141,48.64137,AZ,29403
585170,Sheki,41.19194,47.17056,AZ,63000
585184,Sabuncu,40.4425,49.94806,AZ,20996
585187,Sabirabad,40.00869,48.47701,AZ,28075
585220,Qusar,41.4275,48.4302,AZ,16022
585221,Quba,41.36108,48.51341,AZ,22405
585225,Haciqabul,40.03874,48.94286,AZ,23102
585226,Qazax,41.09246,45.36561,AZ,18903
585379,Haci Zeynalabdin,40.62333,49.55861,AZ,19019
585514,Mingelchaur,40.76395,47.05953,AZ,95453
585557,Mastaga,40.52983,50.00616,AZ,40092
585568,Mardakan,40.49182,50.14292,AZ,15267
585630,Lokbatan,40.3256,49.73376,AZ,30694
585763,Kyurdarmir,40.34532,48.15085,AZ,19088
585915,Khirdalan,40.44808,49.75502,AZ,37949
586340,Yeni Suraxani,40.43026,50.03598,AZ,16127
586427,Geoktschai,40.65055,47.74219,AZ,35348
586429,Hovsan,40.37444,50.08528,AZ,36293
586523,Ganja,40.68278,46.36056,AZ,313300
586763,Divichibazar,41.20117,48.98712,AZ,23248
586925,Buzovna,40.51903,50.11438,AZ,24795
586968,Biny Selo,40.45076,50.08686,AZ,24596
587057,Barda,40.37577,47.12619,AZ,37372
587078,Bilajari,40.4444,49.80566,AZ,42194
587084,Baku,40.37767,49.89201,AZ,1116513
587261,Amirdzhan,40.42639,49.98361,AZ,26798
587361,Aghsu,40.57028,48.40087,AZ,17209
587378,Agdas,40.64699,47.4738,AZ,23528
587384,Agdzhabedy,40.05015,47.45937,AZ,34989
824003,Bakixanov,40.41894,49.96693,AZ,66686
3186573,Zenica,44.20169,17.90397,BA,164423
3187609,Visoko,43.98889,18.17806,BA,17890
3188225,Velika Kladusa,45.18497,15.80579,BA,19330
3188582,Tuzla,44.53842,18.66709,BA,142486
3188893,Trebinje,42.71197,18.34362,BA,33178
3188924,Travnik,44.22637,17.66583,BA,31127
3191281,Sarajevo,43.84864,18.35644,BA,696731
3192409,Prijedor,44.97991,16.71401,BA,36347
3194828,Mostar,43.34333,17.80806,BA,104518
3199744,Gradacac,44.87851,18.42764,BA,15659
3199779,Gracanica,44.70307,18.3101,BA,15758
3200396,Gorazde,43.66795,18.97564,BA,17650
3201984,Doboj,44.73179,18.08698,BA,27235
3202822,Cazin,44.96694,15.94306,BA,21741
3203099,Bugojno,44.05722,17.45083,BA,41378
3203521,Brcko,44.87278,18.80833,BA,38968
3203653,Bosanska Krupa,44.8825,16.15139,BA,15193
3204186,Bijeljina,44.75874,19.21437,BA,37692
3204222,Bihac,44.81694,15.87083,BA,75641
3204541,Banja Luka,44.77583,17.18556,BA,221106
3337476,Konjic,43.65126,17.96082,BA,15950
3374036,Bridgetown,13.1,-59.61667,BB,98511
1185092,Thakurgaon,26.03097,88.46989,BD,71096
1185095,Teknaf,20.86382,92.30153,BD,40557
1185098,Tungi,23.89154,90.40232,BD,337579
1185099,Sylhet,24.89904,91.87198,BD,237000
1185100,Dohar,23.59311,90.14251,BD,45543
1185106,Jamalpur,24.91965,89.94812,BD,167900
1185108,Shibganj,24.68501,88.15638,BD,35961
1185111,Satkhira,22.70817,89.07185,BD,128918
1185115,Sirajganj,24.45771,89.70802,BD,127481
1185116,Netrakona,24.88352,90.72898,BD,79016
1185117,Narsingdi,23.92298,90.71768,BD,281080
1185120,Sandwip,22.51409,91.45491,BD,52152
1185121,Shahzadpur,24.17687,89.5988,BD,102420
1185127,Ramganj,23.1006,90.84989,BD,55241
1185128,Rajshahi,24.374,88.60114,BD,700133
1185138,Pirojpur,22.57965,89.97521,BD,54418
1185141,Panchagarh,26.33338,88.55777,BD,48531
1185148,Patiya,22.29543,91.979,BD,51360
1185149,Parbatipur,25.66369,88.93093,BD,48020
1185155,Narayanganj,23.61352,90.50298,BD,223622
1185156,Nalchiti,22.63696,90.27195,BD,38703
1185159,Nagarpur,24.05783,89.87696,BD,238422
1185160,Nageswari,25.96817,89.69153,BD,49425
1185162,Mymensingh,24.75636,90.40646,BD,225126
1185164,Muktagacha,24.76484,90.25698,BD,24684
1185165,Mirzapur,24.10287,90.09841,BD,41137
1185166,Maulavi Bazar,24.48888,91.77075,BD,57441
1185167,Morrelgonj,22.45566,89.85584,BD,31647
1185171,Mehendiganj,22.82257,90.52859,BD,39424
1185173,Mathba,22.28616,89.95883,BD,29760
1185181,Lalmanirhat,25.91719,89.44595,BD,65127
1185183,Laksham,23.24018,91.12143,BD,82290
1185186,Comilla,23.46186,91.18503,BD,389411
1185188,Rangpur,25.74664,89.25166,BD,343122
1185191,Kushtia,23.9028,89.11943,BD,135724
1185199,Kaliganj,23.40964,89.13801,BD,45631
1185204,Jhingergacha,23.11134,89.09061,BD,41957
1185206,Joypur Hat,25.10147,89.02734,BD,73068
1185207,Ishurdi,24.12858,89.06573,BD,81995
1185209,Habiganj,24.38044,91.41299,BD,88760
1185210,Gaurnadi,22.97372,90.22376,BD,40519
1185218,Gafargaon,24.432,90.5585,BD,34177
1185224,Feni,23.0144,91.3966,BD,84028
1185236,Raipur,23.0391,90.76808,BD,64652
1185239,Sarankhola,22.31006,89.79113,BD,36470
1185241,Dhaka,23.7104,90.40744,BD,10356500
1185247,Chilmari,25.55613,89.67097,BD,49736
1185249,Chhagalnaiya,23.02475,91.51091,BD,39335
1185251,Lalmohan,22.33774,90.73708,BD,42220
1185252,Khagrachhari,23.10787,91.97007,BD,50364
1185254,Chhatak,25.03858,91.6815,BD,39218
1185260,Bhatpara Abhaynagar,23.01472,89.43936,BD,42653
1185262,Bheramara,24.02452,88.99234,BD,38159
1185263,Bhairab Bazar,24.0524,90.9764,BD,105457
1185270,Bandarban,22.19534,92.21946,BD,32523
1185272,Kalia,23.043,89.63094,BD,40492
1185274,Baniachang,24.51863,91.35787,BD,37807
1185276,Bajitpur,24.21623,90.95002,BD,34560
1185283,Badarganj,25.67419,89.05377,BD,32600
1185293,Narail,23.15509,89.49515,BD,55112
1185920,Tungipara,22.89983,89.90326,BD,62210
1188569,Sarishabari,24.75127,89.83126,BD,81325
1189056,Sakhipur,24.31988,90.16943,BD,40869
1189638,Raojan,22.53511,91.91919,BD,25708
1191139,Phultala,22.71673,89.51194,BD,37985
1191368,Palang,23.21824,90.35076,BD,67652
1192366,Par Naogaon,24.80418,88.94875,BD,192464
1193823,Nabinagar,23.88791,90.96792,BD,31671
1196292,Lakshmipur,22.9443,90.83005,BD,61703
1197895,Kesabpur,22.90725,89.21954,BD,30926
1201753,Hajiganj,23.25191,90.85508,BD,44343
1203344,Faridpur,23.60612,89.84064,BD,112187
1203891,Dinajpur,25.62745,88.63779,BD,206234
1205481,Uttar Char Fasson,22.22647,90.71275,BD,48305
1205733,Chittagong,22.3384,91.83168,BD,3920222
1207047,Char Bhadrasan,23.30916,90.22698,BD,34423
1209562,Bera,24.07821,89.63262,BD,39604
1210565,Burhanuddin,22.49518,90.72391,BD,45670
1336133,Satkania,22.07639,92.04955,BD,52005
1336134,Cox's Bazar,21.45388,91.96765,BD,253788
1336135,Khulna,22.80979,89.56439,BD,1342339
1336136,Bhola,22.68759,90.64403,BD,99079
1336137,Barisal,22.70497,90.37013,BD,202242
1336140,Jessore,23.16971,89.21371,BD,243987
1336143,Pabna,24.00644,89.2372,BD,186781
1336144,Tangail,24.24984,89.91655,BD,180144
1337233,Bogra,24.85098,89.37108,BD,210000
1337239,Pirgaaj,25.85587,88.35943,BD,34606
1337240,Nawabganj,24.59025,88.27444,BD,142361
1337245,Madaripur,23.17097,90.20935,BD,84789
1337248,Sherpur,25.01881,90.01751,BD,107419
1337249,Kishorganj,24.43944,90.78291,BD,90690
1462681,Manikchari,22.83957,91.84128,BD,24813
1477498,Bhandaria,22.48898,90.06273,BD,30219
6414184,Fatikchari,22.68768,91.78123,BD,33200
6545349,Saidpur,25.77769,88.89169,BD,199422
7701354,Azimpur,23.7298,90.3854,BD,96641
9827976,Paltan,23.73625,90.41426,BD,84492
2783081,Zwijndrecht,51.21979,4.32664,BE,18249
2783089,Zwevegem,50.81268,3.33848,BE,23358
2783175,Zottegem,50.86955,3.81052,BE,24434
2783188,Zonhoven,50.99064,5.36819,BE,19922
2783204,Zoersel,51.26825,4.71296,BE,20642
2783274,Zemst,50.98318,4.46079,BE,21096
2783293,Zele,51.06566,4.0403,BE,20236
2783308,Zedelgem,51.14236,3.1368,BE,21968
2783310,Zaventem,50.88365,4.47298,BE,28188
2783416,Wuustwezel,51.39214,4.59546,BE,18117
2783632,Willebroek,51.06041,4.36019,BE,22808
2783759,Wevelgem,50.8,3.16667,BE,30954
2783763,Wetteren,51.00526,3.88341,BE,22930
2783801,Westerlo,51.09049,4.91544,BE,22579
2783820,Wervik,50.78069,3.03854,BE,17340
2783941,Wavre,50.71717,4.60138,BE,32112
2783985,Waterloo,50.71469,4.3991,BE,29778
2784068,Waregem,50.88898,3.42756,BE,35896
2784189,Walcourt,50.25401,4.43796,BE,17501
2784548,Vise,50.7376,5.69907,BE,17054
2784604,Vilvoorde,50.92814,4.42938,BE,36955
2784821,Verviers,50.58907,5.86241,BE,52824
2785141,Turnhout,51.32254,4.94471,BE,39654
2785169,Tubize,50.69059,4.2009,BE,21859
2785341,Tournai,50.60715,3.38932,BE,67721
2785364,Torhout,51.0656,3.10085,BE,18933
2785389,Tongeren,50.78054,5.46484,BE,29816
2785470,Tienen,50.80745,4.9378,BE,31743
2785476,Tielt,50.99931,3.32707,BE,19299
2785612,Tessenderlo,51.06513,5.08856,BE,16574
2785622,Tervuren,50.82372,4.51418,BE,20623
2785778,Temse,51.12794,4.21372,BE,26054
2786087,Stekene,51.2099,4.03651,BE,16989
2786229,Stabroek,51.33189,4.37127,BE,17294
2786344,Soumagne,50.61385,5.74679,BE,15237
2786420,Soignies,50.57904,4.07129,BE,24869
2786545,Sint-Truiden,50.81679,5.18647,BE,37859
2786559,Sint-Pieters-Leeuw,50.77926,4.24355,BE,30446
2786578,Sint-Niklaas,51.16509,4.1437,BE,69010
2786634,Sint-Kruis,51.21399,3.24949,BE,16000
2786641,Sint-Katelijne-Waver,51.06691,4.53469,BE,19487
2786694,Sint-Gillis-Waas,51.21914,4.12374,BE,17658
2786700,Sint-Genesius-Rode,50.74645,4.35754,BE,17990
2786824,Seraing,50.58362,5.50115,BE,60737
2786963,Schoten,51.25251,4.50268,BE,33622
2787048,Schilde,51.24107,4.58336,BE,20373
2787356,Saint-Nicolas,50.62837,5.53243,BE,22586
2787416,Saint-Ghislain,50.44816,3.81886,BE,22500
2787662,Rotselaar,50.95302,4.71665,BE,15007
2787769,Ronse,50.74574,3.6005,BE,24204
2787889,Roeselare,50.94653,3.12269,BE,56016
2787989,Rixensart,50.71229,4.52529,BE,21616
2788088,Riemst,50.80995,5.60131,BE,15809
2788348,Ranst,51.18983,4.56533,BE,17405
2788499,Quaregnon,50.44067,3.8653,BE,18491
2788506,Puurs,51.07409,4.28844,BE,15944
2788521,Putte,51.05337,4.63263,BE,15276
2788726,Poperinge,50.85386,2.72659,BE,19537
2788765,Pont-a-Celles,50.50518,4.36887,BE,15909
2789162,Peruwelz,50.50819,3.59373,BE,16647
2789232,Peer,51.1303,5.45952,BE,15551
2789413,Overijse,50.77436,4.53461,BE,23486
2789471,Oupeye,50.71184,5.6468,BE,23594
2789529,Oudenaarde,50.85168,3.60891,BE,27935
2789751,Oostkamp,51.15432,3.23128,BE,21489
2789786,Ostend,51.21551,2.927,BE,69011
2790101,Nivelles,50.59833,4.32848,BE,24149
2790114,Ninove,50.82776,4.02657,BE,34795
2790135,Nijlen,51.16096,4.67008,BE,20792
2790357,Neerpelt,51.22807,5.4427,BE,16122
2790471,Namur,50.4669,4.86746,BE,106284
2790595,Mouscron,50.74497,3.20639,BE,52069
2790676,Mortsel,51.16697,4.45127,BE,24525
2790697,Morlanwelz-Mariemont,50.45502,4.24519,BE,18233
2790869,Mons,50.45413,3.95229,BE,91277
2791067,Mol,51.19188,5.11662,BE,32659
2791194,Middelkerke,51.18532,2.82077,BE,17789
2791315,Merelbeke,50.99447,3.74621,BE,22047
2791343,Menen,50.79722,3.12245,BE,31916
2791424,Meise,50.93934,4.32655,BE,18497
2791537,Mechelen,51.02574,4.47762,BE,77530
2791744,Marche-en-Famenne,50.22678,5.34416,BE,16856
2791814,Manage,50.50312,4.23589,BE,22196
2791857,Maldegem,51.20737,3.44511,BE,22092
2791961,Maasmechelen,50.96545,5.69452,BE,36251
2791964,Maaseik,51.09802,5.78379,BE,23684
2792073,Louvain-la-Neuve,50.66829,4.61443,BE,29521
2792165,Londerzeel,51.00468,4.30304,BE,17274
2792179,Lommel,51.23074,5.31349,BE,31993
2792196,Lokeren,51.10364,3.99339,BE,37567
2792235,Lochristi,51.09644,3.83194,BE,19696
2792360,Lille,51.24197,4.82313,BE,15466
2792397,Lier,51.13128,4.57041,BE,33272
2792413,Liege,50.63373,5.56749,BE,182597
2792482,Leuven,50.87959,4.70093,BE,92892
2792567,Lessines,50.71104,3.83579,BE,17687
2793077,Lede,50.96626,3.98594,BE,16813
2793144,Lebbeke,51.00464,4.13457,BE,17372
2793446,Lanaken,50.89318,5.6468,BE,24771
2793508,La Louviere,50.48657,4.18785,BE,76668
2794055,Kortrijk,50.82803,3.26487,BE,73879
2794070,Kortenberg,50.88982,4.54353,BE,17774
2794117,Kontich,51.13213,4.44706,BE,20290
2794166,Koksijde,51.11642,2.63772,BE,21027
2794210,Knokke-Heist,51.35,3.26667,BE,33781
2794663,Kasterlee,51.24118,4.96651,BE,17765
2794730,Kapellen,51.31377,4.43539,BE,26410
2794788,Kalmthout,51.38442,4.47556,BE,17485
2795009,Izegem,50.91396,3.21378,BE,26382
2795100,Ieper,50.85114,2.88569,BE,35089
2795113,Huy,50.51894,5.23284,BE,19973
2795261,Houthalen,51.03427,5.37429,BE,30050
2795398,Hoogstraten,51.40029,4.76034,BE,18524
2795730,Hoboken,51.17611,4.34844,BE,34443
2795800,Heusden,51.03664,5.28013,BE,31017
2795908,Herzele,50.88681,3.89014,BE,16523
2795912,Herve,50.64083,5.79353,BE,16544
2795930,Herstal,50.66415,5.62346,BE,36503
2796009,Herentals,51.17655,4.83248,BE,25912
2796012,Herent,50.90861,4.67056,BE,19218
2796132,Helchteren,51.05591,5.38244,BE,30050
2796153,Heist-op-den-Berg,51.07537,4.72827,BE,37873
2796491,Hasselt,50.93106,5.33781,BE,69222
2796542,Harelbeke,50.85343,3.30935,BE,25978
2796637,Hamme,51.09822,4.13705,BE,22891
2796696,Halle,50.73385,4.23454,BE,34479
2796833,Haaltert,50.90634,4.00093,BE,17129
2797114,Grimbergen,50.93409,4.37213,BE,33561
2797638,Geraardsbergen,50.77343,3.88223,BE,30807
2797656,Gent,51.05,3.71667,BE,231493
2797670,Genk,50.965,5.50082,BE,63666
2797713,Gembloux,50.56149,4.69889,BE,21676
2797779,Geel,51.16557,4.98917,BE,34697
2798023,Frameries,50.40578,3.89603,BE,20598
2798297,Fleurus,50.48351,4.55006,BE,22080
2798301,Fleron,50.61516,5.68062,BE,15994
2798307,Flemalle-Haute,50.59994,5.44471,BE,25144
2798551,Evergem,51.10529,3.704,BE,31615
2798573,Eupen,50.6279,6.03647,BE,18029
2798615,Essen,51.46791,4.46901,BE,16754
2798987,Eeklo,51.18703,3.55654,BE,19116
2799007,Edegem,51.15662,4.44504,BE,21839
2799090,Duffel,51.09554,4.50903,BE,16011
2799226,Dour,50.39583,3.77792,BE,16861
2799365,Dilbeek,50.84799,4.25972,BE,39482
2799369,Diksmuide,51.03248,2.86384,BE,15515
2799397,Diest,50.98923,5.05062,BE,22516
2799412,Diepenbeek,50.90769,5.41875,BE,17699
2799496,Destelbergen,51.05952,3.79899,BE,16853
2799645,Dendermonde,51.02869,4.10106,BE,43055
2799647,Denderleeuw,50.88506,4.07601,BE,16969
2799746,Deinze,50.98175,3.53096,BE,29815
2800063,Courcelles,50.46379,4.3747,BE,29473
2800220,Colfontaine,50.4141,3.85569,BE,19964
2800438,Chaudfontaine,50.5828,5.6341,BE,20960
2800448,Chatelet,50.40338,4.52826,BE,35238
2800461,Chasse Royale,50.42842,3.95001,BE,0
2800481,Charleroi,50.41136,4.44448,BE,200132
2800866,Brussels,50.85045,4.34878,BE,1019022
2800931,Brugge,51.20892,3.22424,BE,116709
2801106,Brecht,51.35024,4.63829,BE,25908
2801117,Brasschaat,51.2912,4.49182,BE,37040
2801150,Braine-le-Comte,50.60979,4.14658,BE,20133
2801154,Braine-l'Alleud,50.68363,4.36784,BE,37512
2801226,Boussu,50.43417,3.7944,BE,20058
2801447,Bornem,51.09716,4.24364,BE,19997
2801494,Boom,51.09242,4.3717,BE,15810
2801858,Blankenberge,51.31306,3.13227,BE,18230
2801922,Binche,50.41155,4.16469,BE,32030
2801924,Bilzen,50.87325,5.5184,BE,29622
2802031,Beveren,51.21187,4.25633,BE,45179
2802170,Beringen,51.04954,5.22606,BE,40930
2802433,Beersel,50.76589,4.3002,BE,23228
2802435,Beerse,51.31927,4.85304,BE,16208
2802743,Balen,51.16837,5.17027,BE,19978
2803010,Ath,50.62937,3.77801,BE,26681
2803033,Asse,50.91011,4.19836,BE,28985
2803073,Arlon,49.68333,5.81667,BE,26179
2803138,Antwerpen,51.21989,4.40346,BE,459805
2803160,Ans,50.6623,5.52029,BE,27297
2803204,Andenne,50.48941,5.09513,BE,24055
2803429,Aarschot,50.98715,4.83695,BE,27656
2803443,Aalter,51.09017,3.44693,BE,18802
2803448,Aalst,50.93604,4.0355,BE,77534
2353197,Zorgo,12.24922,-0.61527,BF,23892
2353688,Yako,12.9591,-2.26075,BF,22904
2354176,Tougan,13.0725,-3.0694,BF,17590
2354349,Titao,13.76667,-2.06667,BF,19131
2354675,Tenkodogo,11.78,-0.36972,BF,37658
2356228,Reo,12.31963,-2.47094,BF,37535
2356454,Po,11.16972,-1.145,BF,17924
2357043,Ouahigouya,13.58278,-2.42158,BF,61096
2357048,Ouagadougou,12.36566,-1.53388,BF,1086505
2357163,Nouna,12.72939,-3.86305,BF,29048
2358100,Manga,11.66361,-1.07306,BF,15173
2358382,Leo,11.10033,-2.10654,BF,26884
2358738,Koupela,12.17864,-0.35103,BF,32052
2358946,Koudougou,12.25263,-2.36272,BF,87347
2359142,Kongoussi,13.32583,-1.53472,BF,26338
2359227,Kombissiri,12.06095,-1.33355,BF,30137
2359317,Kokologo,12.18972,-1.88556,BF,25958
2359608,Kaya,13.09167,-1.08444,BF,39229
2360073,Hounde,11.5,-3.51667,BF,36593
2360238,Gourcy,13.20776,-2.35893,BF,16765
2360615,Garango,11.8,-0.55056,BF,29076
2360886,Fada N'gourma,12.06157,0.35843,BF,33910
2361082,Dori,14.0354,-0.0345,BF,37806
2361177,Djibo,14.0994,-1.62554,BF,22223
2361373,Diapaga,12.07305,1.78838,BF,26013
2361477,Dedougou,12.46338,-3.46075,BF,45341
2361845,Bousse,12.6576,-1.89288,BF,15868
2361946,Boulsa,12.66664,-0.57469,BF,17489
2362344,Bobo-Dioulasso,11.17715,-4.2979,BF,360106
2362909,Banfora,10.63333,-4.76667,BF,60288
2577162,Gaoua,10.29917,-3.25083,BF,25104
2577164,Orodara,10.94917,-4.93417,BF,18632
725578,Yambol,42.48333,26.5,BG,80116
725712,Vratsa,43.21,23.5625,BG,64941
725905,Vidin,43.99,22.8725,BG,54409
725988,Velingrad,42.02754,23.99155,BG,24036
725993,Veliko Turnovo,43.08124,25.62904,BG,66217
726050,Varna,43.21667,27.91667,BG,312770
726174,Targovishte,43.2512,26.57215,BG,37774
726320,Troyan,42.89427,24.71589,BG,21162
726418,Dobrich,43.56667,27.83333,BG,94831
726534,Svishtov,43.61959,25.35044,BG,32256
726546,Svilengrad,41.76667,26.2,BG,19279
726848,Stara Zagora,42.43278,25.64194,BG,143431
726872,Dupnitsa,42.26667,23.11667,BG,34764
727011,Sofia,42.69751,23.32415,BG,1152556
727030,Smolyan,41.58528,24.69194,BG,32069
727079,Sliven,42.68583,26.32917,BG,96368
727221,Silistra,44.11667,27.26667,BG,39715
727233,Shumen,43.27064,26.92286,BG,87283
727337,Sevlievo,43.02583,25.11361,BG,24582
727447,Sandanski,41.56667,23.28333,BG,26459
727462,Samokov,42.337,23.5528,BG,26765
727523,Ruse,43.85639,25.97083,BG,156238
727696,Razgrad,43.53333,26.51667,BG,38285
727791,Rakovski,42.3,24.96667,BG,15782
728075,Popovo,43.35,26.23333,BG,16571
728193,Plovdiv,42.15,24.75,BG,340494
728203,Pleven,43.41667,24.61667,BG,118675
728288,Petrich,41.4,23.21667,BG,30308
728317,Peshtera,42.03333,24.3,BG,18676
728330,Pernik,42.6,23.03333,BG,82467
728378,Pazardzhik,42.2,24.33333,BG,75977
728448,Panagyurishte,42.5,24.18333,BG,19389
728742,Nova Zagora,42.48333,26.01667,BG,24340
729114,Montana,43.4125,23.225,BG,47445
729559,Lovech,43.13333,24.71667,BG,42211
729581,Lom,43.81389,23.23611,BG,26594
729730,Kyustendil,42.28389,22.69111,BG,48286
729794,Kurdzhali,41.65,25.36667,BG,51000
730435,Haskovo,41.93415,25.55557,BG,79699
730442,Kharmanli,41.93333,25.9,BG,18931
730496,Kazanluk,42.61667,25.4,BG,55196
730559,Karnobat,42.65,26.98333,BG,19709
730565,Karlovo,42.63333,24.8,BG,19958
731108,Gotse Delchev,41.56667,23.73333,BG,20471
731233,Gorna Oryakhovitsa,43.12778,25.70167,BG,38553
731549,Gabrovo,42.87472,25.33417,BG,66175
732263,Dimitrovgrad,42.05,25.6,BG,43288
732452,Chirpan,42.2,25.33333,BG,17243
732491,Cherven Bryag,43.26667,24.1,BG,21688
732770,Burgas,42.50606,27.46781,BG,195966
733014,Botevgrad,42.9,23.78333,BG,20909
733191,Blagoevgrad,42.01667,23.1,BG,71306
733264,Berkovitsa,43.23611,23.12583,BG,15027
733579,Aytos,42.7,27.25,BG,20986
733618,Asenovgrad,42.01667,24.86667,BG,52170
290104,Sitrah,26.15472,50.62056,BH,37657
290187,Madinat `Isa,26.17361,50.54778,BH,38090
290215,Jidd Hafs,26.21861,50.54778,BH,31735
290247,Madinat Hamad,26.11528,50.50694,BH,52718
290269,Dar Kulayb,26.06861,50.50389,BH,65466
290332,Al Muharraq,26.25722,50.61194,BH,97458
290340,Manama,26.21536,50.5832,BH,147074
385038,Ar Rifa',26.13,50.555,BH,79550
422232,Makamba,-4.1348,29.804,BI,19642
423328,Bururi,-3.94877,29.62438,BI,19740
425378,Bujumbura,-3.3822,29.3644,BI,331700
425551,Muramvya,-3.2682,29.6079,BI,18041
426272,Gitega,-3.4264,29.9308,BI,23167
426700,Ruyigi,-3.47639,30.24861,BI,38458
430569,Ngozi,-2.9075,29.8306,BI,21506
430952,Kayanza,-2.9221,29.6293,BI,19443
431748,Muyinga,-2.8451,30.3414,BI,71076
433635,Rutana,-3.9279,29.992,BI,20893
2391377,Tchaourou,8.88649,2.59753,BJ,20971
2391455,Tanguieta,10.62118,1.26651,BJ,19833
2391893,Save,8.03424,2.4866,BJ,75970
2391895,Savalou,7.92807,1.97558,BJ,30187
2392009,Sakete,6.73618,2.65866,BJ,30111
2392087,Porto-Novo,6.49646,2.60359,BJ,234168
2392108,Pobe,6.98008,2.6649,BJ,32983
2392204,Parakou,9.33716,2.63031,BJ,163753
2392308,Ouidah,6.36307,2.08506,BJ,83503
2392505,Nikki,9.94009,3.21075,BJ,54009
2392601,Natitingou,10.30416,1.37962,BJ,80892
2392837,Malanville,11.86819,3.38327,BJ,37117
2392897,Lokossa,6.63869,1.71674,BJ,86971
2393551,Ketou,7.36332,2.59978,BJ,22341
2393693,Kandi,11.13417,2.93861,BJ,109701
2394545,Dogbo,6.81667,1.78333,BJ,41312
2394560,Djougou,9.70853,1.66598,BJ,237040
2394711,Dassa-Zoume,7.75,2.18333,BJ,21672
2394814,Cove,7.22097,2.34017,BJ,38566
2394819,Cotonou,6.36536,2.41833,BJ,780000
2394824,Come,6.40764,1.88198,BJ,29208
2395049,Bohicon,7.17826,2.0667,BJ,125092
2395182,Bembereke,10.22827,2.66335,BJ,24006
2395261,Bassila,9.00814,1.6654,BJ,23616
2395317,Banikoara,11.29845,2.43856,BJ,22487
2395568,Aplahoue,6.93333,1.68333,BJ,19862
2395635,Allada,6.66547,2.15138,BJ,20094
2395914,Abomey-Calavi,6.44852,2.35566,BJ,385755
2395915,Abomey,7.18286,1.99119,BJ,82154
3579132,Gustavia,17.89618,-62.84978,BL,5988
3573197,Hamilton,32.2949,-64.78303,BM,902
1820071,Tutong,4.8,114.65,BN,19151
1820187,Seria,4.60637,114.32476,BN,30097
1820491,Kuala Belait,4.58361,114.2312,BN,31178
1820906,Bandar Seri Begawan,4.94029,114.94806,BN,64409
3901178,Yacuiba,-22.01643,-63.67753,BO,82803
3901301,Warnes,-17.5163,-63.16778,BO,22036
3901501,Villazon,-22.08659,-65.59422,BO,30253
3901504,Villa Yapacani,-17.4,-63.83333,BO,18187
3901547,Villamontes,-21.26235,-63.46903,BO,18761
3902202,Tupiza,-21.44345,-65.71875,BO,22233
3902377,Trinidad,-14.83333,-64.9,BO,84259
3903320,Tarija,-21.53549,-64.72956,BO,159269
3903987,Sucre,-19.03332,-65.26274,BO,224838
3904666,Santiago del Torno,-17.98674,-63.38118,BO,15543
3904906,Santa Cruz de la Sierra,-17.78629,-63.18117,BO,1364389
3905658,San Ignacio de Velasco,-16.36667,-60.95,BO,23569
3905792,San Borja,-14.81667,-66.85,BO,19640
3906466,Riberalta,-11.00654,-66.06312,BO,74014
3907080,Punata,-17.54234,-65.83472,BO,15194
3907584,Potosi,-19.58361,-65.75306,BO,141251
3909234,Oruro,-17.98333,-67.15,BO,208684
3910027,Montero,-17.33866,-63.2505,BO,88616
3910291,Mizque,-17.94101,-65.34016,BO,30481
3911409,Llallagua,-18.42426,-66.58388,BO,28069
3911925,La Paz,-16.5,-68.15,BO,812799
3914839,Huanuni,-18.289,-66.83583,BO,15492
3915350,Guayaramerin,-10.83676,-65.36136,BO,36008
3918937,Cotoca,-17.81667,-63.05,BO,18347
3919968,Cochabamba,-17.3895,-66.1568,BO,900414
3919998,Cobija,-11.02671,-68.76918,BO,26585
3922414,Camiri,-20.03849,-63.51833,BO,27961
3513563,Kralendijk,12.15,-68.26667,BQ,3081
3384986,Vitoria do Mearim,-3.46222,-44.87056,BR,15775
3384987,Vitoria de Santo Antao,-8.11806,-35.29139,BR,107383
3385022,Viseu,-1.19667,-46.14,BR,18958
3385077,Conde,-7.25972,-34.9075,BR,15859
3385088,Vigia,-0.85833,-48.14167,BR,29229
3385106,Vicosa do Ceara,-3.56222,-41.09222,BR,16636
3385109,Vicosa,-9.37139,-36.24083,BR,19573
3385122,Viana,-3.22028,-45.00361,BR,26689
3385467,Varzea Alegre,-5.35,-40.38333,BR,21841
3385504,Varjota,-4.19444,-40.47667,BR,16462
3385538,Vargem Grande,-3.54306,-43.91583,BR,21419
3385592,Valenca do Piaui,-6.4075,-41.74556,BR,15881
3385742,Uniao dos Palmares,-9.16278,-36.03194,BR,41178
3385745,Uniao,-4.58583,-42.86417,BR,15677
3385922,Tuntum,-5.25806,-44.64889,BR,16402
3385935,Tucurui,-3.76585,-49.67923,BR,76337
3385980,Tucuma,-0.18333,-50.05,BR,15030
3386042,Trindade,-7.76194,-40.26778,BR,19313
3386177,Trairi,-3.27778,-39.26889,BR,23126
3386264,Toritama,-8.00667,-36.05667,BR,23940
3386279,Tome Acu,-2.41889,-48.15222,BR,34053
3386361,Timon,-5.09417,-42.83667,BR,124427
3386372,Timbiras,-4.25528,-43.94056,BR,17875
3386396,Timbauba,-7.50528,-35.31833,BR,45121
3386449,Tiangua,-3.73222,-40.99167,BR,45696
3386496,Teresina,-5.08917,-42.80194,BR,744512
3386567,Sao Joao dos Inhamuns,-6,-40.28333,BR,29188
3386931,Tamandare,-8.75632,-35.09995,BR,17954
3387082,Tabira,-7.59083,-37.53944,BR,16926
3387115,Surubim,-7.83306,-35.75472,BR,34580
3387202,Sousa,-6.75917,-38.22806,BR,47927
3387204,Soure,-0.71667,-48.52333,BR,18212
3387266,Solanea,-6.755,-35.54,BR,17030
3387296,Sobral,-3.68611,-40.34972,BR,157996
3387604,Sirinhaem,-8.59083,-35.11611,BR,40852
3387663,Sertania,-8.07361,-37.26444,BR,18190
3387786,Serra Talhada,-7.99194,-38.29833,BR,51203
3387926,Senador Pompeu,-5.58806,-39.37167,BR,16515
3387987,Satuba,-9.56333,-35.82444,BR,15887
3388145,Sao Raimundo Nonato,-9.01528,-42.69944,BR,19569
3388269,Sao Miguel dos Campos,-9.78111,-36.09361,BR,40890
3388270,Sao Miguel do Guama,-1.62667,-47.48333,BR,28265
3388318,Sao Mateus do Maranhao,-4.04167,-44.475,BR,28233
3388341,Sao Luis do Quitunde,-9.31833,-35.56111,BR,20563
3388368,Sao Luis,-2.52972,-44.30278,BR,917237
3388376,Sao Lourenco da Mata,-8.00222,-35.01833,BR,88416
3388435,Sao Jose do Egito,-7.47889,-37.27444,BR,18218
3388441,Sao Jose de Ribamar,-2.56194,-44.05417,BR,27777
3388443,Sao Jose de Mipibu,-6.07472,-35.23778,BR,15298
3388615,Sao Joao dos Patos,-6.495,-43.70222,BR,19538
3388714,Sao Goncalo do Amarante,-3.60722,-38.96833,BR,23583
3388847,Sao Felix do Xingu,-6.64472,-51.995,BR,16477
3388868,Sao Domingos do Maranhao,-5.57583,-44.38528,BR,18275
3388991,Sao Bento,-6.28333,-37.75,BR,24749
3389006,Sao Bento,-2.69583,-44.82139,BR,17245
3389321,Santa Rita,-7.11389,-34.97806,BR,119893
3389353,Santarem,-2.44306,-54.70833,BR,189047
3389358,Santa Quiteria do Maranhao,-3.51556,-42.54667,BR,17174
3389361,Santa Quiteria,-4.33194,-40.15667,BR,24391
3389384,Santana do Ipanema,-9.37833,-37.24528,BR,26146
3389557,Santa Luzia,-7.64265,-47.21738,BR,22909
3389609,Santa Ines,-3.66667,-45.38,BR,67424
3389622,Santa Helena,-2.23111,-45.3,BR,16045
3389652,Santa Cruz do Capibaribe,-7.9575,-36.20472,BR,76450
3389673,Santa Cruz,-6.22944,-36.02278,BR,27775
3389822,Salinopolis,-0.61361,-47.35611,BR,40998
3389860,Salgueiro,-8.07417,-39.11917,BR,42152
3390160,Russas,-4.94028,-37.97583,BR,39465
3390288,Rio Largo,-9.47833,-35.85333,BR,63387
3390295,Rio Formoso,-8.66877,-35.16277,BR,15518
3390326,Ribeirao,-8.51444,-35.37778,BR,29818
3390760,Recife,-8.05389,-34.88111,BR,1478098
3390901,Quixeramobim,-5.19917,-39.29278,BR,34321
3390907,Quixada,-4.97139,-39.01528,BR,49328
3391220,Presidente Dutra,-5.29,-44.49,BR,30330
3391360,Santana,-0.05833,-51.18167,BR,83927
3391397,Porto Calvo,-9.045,-35.39833,BR,17346
3391412,Portel,-1.93556,-50.82111,BR,21315
3391556,Pombos,-8.14139,-35.39583,BR,15894
3391571,Pombal,-6.77028,-37.80167,BR,21751
3391908,Piripiri,-4.27333,-41.77694,BR,44864
3391991,Piracuruca,-3.92806,-41.70917,BR,18852
3392054,Pinheiro,-2.52139,-45.0825,BR,38893
3392088,Pindare Mirim,-3.60833,-45.34333,BR,22933
3392126,Pilar,-9.59722,-35.95667,BR,30617
3392167,Picos,-7.07694,-41.46694,BR,57495
3392242,Petrolina,-9.39861,-40.50083,BR,194650
3392243,Jatoba,-9.18306,-38.26889,BR,20575
3392251,Pesqueira,-8.35778,-36.69639,BR,41896
3392345,Pentecoste,-3.79278,-39.27028,BR,19680
3392368,Penalva,-3.29417,-45.17361,BR,17186
3392431,Pedro II,-4.42472,-41.45861,BR,22038
3392629,Pedra Branca,-5.45417,-39.71722,BR,20072
3392734,Paulo Afonso,-9.40611,-38.21472,BR,85350
3392740,Paulista,-7.94083,-34.87306,BR,289971
3392887,Patos,-7.02444,-37.28,BR,92575
3392998,Parnamirim,-5.91556,-35.26278,BR,150343
3393001,Parnaiba,-2.90472,-41.77667,BR,138008
3393008,Parintins,-2.62833,-56.73583,BR,64428
3393017,Parelhas,-6.68778,-36.6575,BR,16377
3393091,Paraipaba,-3.43944,-39.14833,BR,18423
3393106,Paragominas,-2.96667,-47.48333,BR,69613
3393115,Paracuru,-3.41,-39.03056,BR,21196
3393264,Palmares,-8.68333,-35.59167,BR,41679
3393400,Pacatuba,-3.98417,-38.62028,BR,55291
3393409,Pacajus,-4.1725,-38.46056,BR,41558
3393452,Ouricuri,-7.8825,-40.08167,BR,29317
3393465,Oros,-6.24444,-38.91361,BR,16328
3393471,Oriximina,-1.76556,-55.86611,BR,35581
3393536,Olinda,-8.00889,-34.85528,BR,366754
3393764,Oeiras,-7.02528,-42.13111,BR,21071
3393768,Abidos,-1.9175,-55.51806,BR,24970
3393832,Nova Russas,-4.70667,-40.56306,BR,21986
3393876,Nova Cruz,-6.47806,-35.43389,BR,23166
3393972,Nazare da Mata,-7.74167,-35.22778,BR,26485
3394023,Natal,-5.795,-35.20944,BR,763043
3394116,Murici,-9.30667,-35.94333,BR,20419
3394453,Moreno,-8.11861,-35.09222,BR,45237
3394500,Morada Nova,-5.10667,-38.3725,BR,37389
3394549,Monteiro,-7.88944,-37.12,BR,17726
3394605,Monte Alegre,-2.00082,-54.08102,BR,22840
3394649,Mombaca,-5.74306,-39.6275,BR,17065
3394661,Moju,-1.88389,-48.76889,BR,21510
3394682,Mossoro,-5.1875,-37.34417,BR,202005
3394745,Mocajuba,-2.58417,-49.50722,BR,16567
3395062,Maues,-3.38361,-57.71861,BR,22475
3395077,Matriz de Camaragibe,-9.15167,-35.53333,BR,18705
3395380,Mari,-7.06,-35.31944,BR,17535
3395395,Marechal Deodoro,-9.71028,-35.895,BR,50571
3395458,Maragogi,-9.01222,-35.2225,BR,16066
3395473,Maracanau,-3.87667,-38.62556,BR,193529
3395503,Maraba,-5.38146,-49.13232,BR,145860
3395717,Mamanguape,-6.83861,-35.12611,BR,27606
3395981,Maceio,-9.66583,-35.73528,BR,954991
3395998,Macau,-5.115,-36.63444,BR,18070
3396016,Macapa,0.03889,-51.06639,BR,338936
3396048,Macaiba,-5.85833,-35.35389,BR,40015
3396266,Limoeiro do Norte,-5.14556,-38.09806,BR,29449
3396277,Limoeiro,-7.87472,-35.45028,BR,42328
3396364,Lavras da Mangabeira,-6.75333,-38.96444,BR,17221
3396496,Lajedo,-8.66361,-36.32,BR,25261
3396601,Lago da Pedra,-4.28674,-45.23824,BR,25996
3396769,Lagoa do Itaenga,-7.93611,-35.29028,BR,17719
3397147,Juazeiro do Norte,-7.21306,-39.31528,BR,225230
3397230,Jose de Freitas,-4.75639,-42.57556,BR,21432
3397277,Joao Pessoa,-7.115,-34.86306,BR,650883
3397315,Joao Camara,-5.5375,-35.81972,BR,19885
3397665,Jaguaruana,-4.83389,-37.78111,BR,21790
3397675,Jaguaribe,-5.89056,-38.62194,BR,23065
3397838,Jaboatao,-8.18028,-35.00139,BR,702621
3397851,Itupiranga,-5.13472,-49.32667,BR,21301
3397893,Itacoatiara,-3.14306,-58.44417,BR,64937
3397898,Itaporanga,-7.30444,-38.15028,BR,15890
3397904,Itapissuma,-7.77639,-34.89222,BR,16673
3397909,Itapipoca,-3.49444,-39.57861,BR,55784
3397936,Itapecuru Mirim,-3.3925,-44.35861,BR,34943
3397941,Itapage,-3.68667,-39.58611,BR,32043
3397967,Itaituba,-4.27611,-55.98361,BR,64756
3397969,Itaitinga,-3.96944,-38.52806,BR,30938
3398003,Itabaiana,-7.32861,-35.3325,BR,19100
3398076,Ipueiras,-7.03333,-40.45,BR,17111
3398105,Ipubi,-7.65194,-40.14889,BR,16424
3398112,Ipu,-4.32222,-40.71083,BR,26678
3398115,Ipojuca,-8.39889,-35.06389,BR,53364
3398269,Imperatriz,-5.52639,-47.49167,BR,218106
3398331,Iguatu,-6.35944,-39.29861,BR,70380
3398343,Igarape Miri,-1.975,-48.95972,BR,26837
3398350,Igarape Acu,-1.12889,-47.62,BR,24136
3398352,Igarassu,-7.83417,-34.90639,BR,86457
3398379,Ico,-6.40111,-38.86222,BR,28323
3398450,Horizonte,-4.1,-38.48333,BR,51171
3398569,Guaraciaba do Norte,-4.16694,-40.7475,BR,18186
3398570,Guarabira,-6.85472,-35.49,BR,43749
3398614,Guaiuba,-4.03972,-38.63722,BR,21820
3398691,Gravata,-8.20111,-35.56472,BR,61249
3398706,Granja,-3.12028,-40.82611,BR,25879
3398856,Grajau,-5.81944,-46.13861,BR,30217
3398904,Goiana,-7.56056,-35.0025,BR,43980
3398920,Gloria do Goita,-8.00167,-35.29278,BR,17374
3399058,Garanhuns,-8.88202,-36.50216,BR,110085
3399132,Gameleira,-8.58444,-35.38667,BR,19423
3399415,Fortaleza,-3.71722,-38.54306,BR,2400000
3399506,Floriano,-6.76694,-43.0225,BR,48587
3399518,Floresta,-8.60111,-38.56861,BR,18100
3400558,Eusebio,-3.89,-38.45056,BR,37289
3400567,Extremoz,-5.70556,-35.30722,BR,17991
3400617,Estreito,-5.78333,-43.25,BR,17647
3400740,Esperantina,-3.90167,-42.23361,BR,21044
3400752,Esperanca,-7.03306,-35.85722,BR,18817
3400804,Escada,-8.35917,-35.22361,BR,48083
3400969,Dom Pedro,-5.03749,-44.43857,BR,15570
3401106,Demerval Lobao,-5.35833,-42.67639,BR,15265
3401109,Delmiro Gouveia,-9.38861,-37.99917,BR,35259
3401138,Custodia,-8.0875,-37.64306,BR,18107
3401148,Cururupu,-1.82833,-44.86833,BR,22007
3401283,Currais Novos,-6.26083,-36.51778,BR,35560
3401340,Cupira,-8.61667,-35.95,BR,19096
3401545,Crato,-7.23417,-39.40944,BR,88786
3401548,Crateus,-5.17833,-40.6775,BR,52933
3401703,Coroata,-4.13,-44.12417,BR,34129
3401830,Condado,-7.58583,-35.10583,BR,19585
3401845,Conceicao do Araguaia,-8.26441,-49.26982,BR,27115
3401963,Colinas,-6.02583,-44.24917,BR,25158
3401992,Coelho Neto,-4.25667,-43.01278,BR,36184
3402000,Codo,-4.45528,-43.88556,BR,83288
3402229,Chapadinha,-3.74167,-43.36028,BR,40804
3402271,Cha Grande,-8.23833,-35.46167,BR,17112
3402360,Ceara Mirim,-5.63444,-35.42556,BR,32667
3402383,Caxias,-4.85889,-43.35611,BR,148072
3402429,Caucaia,-3.73611,-38.65306,BR,275019
3402465,Catole do Rocha,-6.34389,-37.74667,BR,19812
3402528,Catende,-8.66667,-35.71667,BR,23322
3402591,Castanhal,-1.29389,-47.92639,BR,137406
3402613,Cascavel,-4.13306,-38.24194,BR,52357
3402655,Caruaru,-8.28333,-35.97611,BR,235371
3402721,Carpina,-7.85083,-35.25472,BR,70689
3402724,Carolina,-7.33561,-47.46218,BR,16228
3403127,Capitao Poco,-1.74639,-47.05944,BR,32704
3403208,Capanema,-1.19583,-47.18083,BR,47766
3403353,Caninde,-4.35889,-39.31167,BR,42720
3403362,Canguaretama,-6.38,-35.12889,BR,18873
3403534,Campos Sales,-7.07444,-40.37611,BR,17648
3403566,Campo Maior,-4.82778,-42.16861,BR,31739
3403611,Campo Alegre,-9.78194,-36.35083,BR,16785
3403642,Campina Grande,-7.23056,-35.88111,BR,348936
3403687,Camocim,-2.90222,-40.84111,BR,44481
3403697,Cameta,-2.24444,-49.49583,BR,45200
3403941,Cajueiro,-9.71667,-36.45,BR,15062
3404020,Cajazeiras,-6.89028,-38.55528,BR,43913
3404117,Caico,-6.45833,-37.09778,BR,54934
3404513,Cabrobo,-8.51417,-39.31,BR,16096
3404545,Cabo,-8.28333,-35.03333,BR,143105
3404558,Cabedelo,-6.98111,-34.83389,BR,54839
3404722,Buriti Bravo,-5.83722,-43.83361,BR,17692
3404766,Buique,-8.62306,-37.15583,BR,20324
3404817,Breves,-1.68222,-50.48028,BR,46473
3404833,Brejo Santo,-7.49333,-38.98722,BR,27384
3404862,Brejo da Madre de Deus,-8.14583,-36.37111,BR,27369
3405006,Braganca,-1.05361,-46.76556,BR,57163
3405380,Bom Conselho,-9.16972,-36.67972,BR,27800
3405616,Boa Viagem,-5.1275,-39.73222,BR,24671
3405738,Bezerros,-8.23333,-35.79694,BR,51436
3405792,Benevides,-1.36139,-48.24472,BR,49794
3405812,Belo Jardim,-8.33556,-36.42417,BR,49922
3405863,Belem,-6.69167,-35.53333,BR,15550
3405870,Belem,-1.45583,-48.50444,BR,1407737
3405924,Beberibe,-4.17972,-38.13056,BR,37025
3405940,Bayeux,-7.125,-34.93222,BR,91056
3405954,Baturite,-4.32861,-38.88472,BR,22417
3406160,Barreiros,-8.81833,-35.18639,BR,35565
3406196,Barreirinhas,-2.75556,-42.82591,BR,17437
3406263,Barras,-4.24444,-42.29444,BR,21597
3406318,Barra do Corda,-5.50308,-45.23693,BR,48901
3406429,Barcarena,-1.50583,-48.62583,BR,29871
3406442,Barbalha,-7.31111,-39.30417,BR,33943
3406545,Balsas,-7.5325,-46.03556,BR,68056
3406910,Bacabal,-4.29167,-44.79167,BR,72372
3406961,Augusto Correa,-1.02167,-46.635,BR,16279
3406996,Atalaia,-9.50194,-36.02278,BR,18908
3407194,Areia Branca,-4.95611,-37.13694,BR,18372
3407216,Arcoverde,-8.41889,-37.05389,BR,57163
3407243,Araripina,-7.57611,-40.49833,BR,38569
3407258,Arari,-3.45361,-44.78,BR,16777
3407327,Arapiraca,-9.7525,-36.66111,BR,166562
3407357,Araguaina,-7.19111,-48.20722,BR,105019
3407378,Aracati,-4.56167,-37.76972,BR,44293
3407407,Aquiraz,-3.90139,-38.39111,BR,65116
3407440,Apodi,-5.66417,-37.79889,BR,16757
3407669,Ananindeua,-1.36556,-48.37222,BR,433956
3407758,Amaraji,-8.38306,-35.4525,BR,16660
3407797,Altos,-5.03806,-42.46,BR,28768
3407882,Altamira,-3.20333,-52.20639,BR,70888
3407903,Almeirim,-1.52333,-52.58167,BR,20464
3407980,Alenquer,-1.94167,-54.73833,BR,26290
3408100,Alagoa Grande,-7.15833,-35.63,BR,16406
3408166,Aguas Belas,-9.11139,-37.12306,BR,22563
3408175,Agua Preta,-8.7075,-35.53056,BR,16444
3408274,Afogados da Ingazeira,-7.75083,-37.63917,BR,25060
3408337,Acu,-5.57667,-36.90861,BR,36125
3408343,Acopiara,-6.09528,-39.4525,BR,24561
3408368,Acarau,-2.88556,-40.12,BR,28389
3408404,Abreu e Lima,-7.91167,-34.90278,BR,81959
3408424,Abaetetuba,-1.71806,-48.8825,BR,78050
3444823,Xique Xique,-10.82294,-42.72815,BR,35433
3444848,Xanxere,-26.87694,-52.40417,BR,32957
3444864,Votuporanga,-20.42278,-49.97278,BR,69863
3444866,Votorantim,-23.54667,-47.43778,BR,99390
3444876,Volta Redonda,-22.52306,-44.10417,BR,249580
3444914,Vitoria da Conquista,-14.86611,-40.83944,BR,253137
3444924,Vitoria,-20.31944,-40.33778,BR,312656
3444969,Visconde do Rio Branco,-21.01028,-42.84056,BR,29009
3444997,Viradouro,-20.87306,-48.29694,BR,17172
3445014,Vinhedo,-23.02972,-46.97528,BR,56492
3445026,Vila Velha,-20.32972,-40.2925,BR,394930
3445126,Videira,-27.00833,-51.15167,BR,42440
3445133,Vicosa,-20.75389,-42.88194,BR,68680
3445153,Viana,-20.39028,-40.49611,BR,55122
3445156,Viamao,-30.08111,-51.02333,BR,285269
3445162,Vespasiano,-19.69194,-43.92333,BR,94749
3445299,Veranopolis,-28.93611,-51.54944,BR,19861
3445307,Vera Cruz,-12.63333,-41.03333,BR,30556
3445348,Wenceslau Braz,-23.87389,-49.80278,BR,15726
3445350,Venancio Aires,-29.60639,-52.19194,BR,40627
3445418,Vazante,-17.98694,-46.90778,BR,15459
3445433,Vassouras,-22.40389,-43.6625,BR,21174
3445446,Varzea Paulista,-23.21139,-46.82833,BR,110936
3445451,Varzea Grande,-15.64667,-56.1325,BR,249752
3445459,Varzea da Palma,-17.5976,-44.73367,BR,28706
3445487,Varginha,-21.55139,-45.43028,BR,116571
3445500,Vargem Grande do Sul,-21.83222,-46.89361,BR,36213
3445575,Valparaiso,-21.22778,-50.86833,BR,15938
3445578,Valinhos,-22.97056,-46.99583,BR,88630
3445596,Valenca,-22.24556,-43.70028,BR,61144
3445597,Valenca,-13.37028,-39.07306,BR,63231
3445630,Vacaria,-28.51222,-50.93389,BR,56765
3445679,Uruguaiana,-29.75472,-57.08833,BR,123480
3445690,Urucuca,-14.59306,-39.28444,BR,24409
3445713,Uruacu,-14.52472,-49.14083,BR,30088
3445746,Uniao da Vitoria,-26.23,-51.08639,BR,48741
3445764,Unai,-16.3575,-46.90611,BR,60202
3445781,Una,-15.29333,-39.07528,BR,22613
3445782,Umuarama,-23.76639,-53.325,BR,89687
3445831,Uberlandia,-18.91861,-48.27722,BR,563536
3445839,Uberaba,-19.74833,-47.93194,BR,260843
3445847,Ubatuba,-23.43389,-45.07111,BR,79007
3445849,Ubata,-14.20906,-39.52641,BR,15604
3445853,Ubaitaba,-14.3125,-39.32333,BR,28375
3445859,Uba,-21.12,-42.94278,BR,97828
3445939,Tupancireta,-29.08056,-53.83583,BR,17488
3445941,Tupaciguara,-18.59222,-48.705,BR,24398
3445942,Tupa,-21.93472,-50.51361,BR,62035
3445983,Tucano,-10.95817,-38.79084,BR,31203
3445993,Tubarao,-28.46667,-49.00694,BR,67245
3446038,Trindade,-16.64944,-49.48889,BR,97521
3446065,Tres Rios,-22.11667,-43.20917,BR,71944
3446077,Tres Pontas,-21.36667,-45.5125,BR,43749
3446087,Tres Passos,-27.45556,-53.93194,BR,17286
3446098,Tres Lagoas,-20.78765,-51.70338,BR,78712
3446130,Tres de Maio,-27.77333,-54.24,BR,18278
3446137,Tres Coroas,-29.51694,-50.77778,BR,21051
3446138,Tres Coracoes,-21.69694,-45.25333,BR,63457
3446194,Tremembe,-22.95833,-45.54944,BR,31719
3446232,Tramandai,-29.98472,-50.13361,BR,34734
3446295,Torres,-29.33528,-49.72694,BR,32791
3446370,Toledo,-24.71361,-53.74306,BR,119313
3446400,Tobias Barreto,-11.18389,-37.99833,BR,29740
3446445,Timoteo,-19.58106,-42.64953,BR,91722
3446465,Timbo,-26.82333,-49.27167,BR,33765
3446500,Tijucas,-27.24139,-48.63361,BR,22481
3446539,Tiete,-23.10194,-47.71472,BR,32061
3446556,Teutonia,-29.44806,-51.80639,BR,21834
3446606,Teresopolis,-22.4167,-42.97822,BR,123979
3446621,Teofilo Otoni,-17.8575,-41.50528,BR,101170
3446625,Teodoro Sampaio,-22.5325,-52.1675,BR,15193
3446652,Telemaco Borba,-24.32389,-50.61556,BR,58880
3446682,Taubate,-23.02639,-45.55528,BR,251641
3446692,Tatui,-23.35556,-47.85694,BR,93580
3446752,Taquarituba,-23.53306,-49.24444,BR,21492
3446753,Taquaritinga,-21.40611,-48.50472,BR,50098
3446783,Taquari,-29.79972,-51.86444,BR,27107
3446847,Taquara,-29.65056,-50.78056,BR,48051
3446866,Tapiramuta,-11.84722,-40.79139,BR,16544
3446880,Tapes,-30.67333,-51.39583,BR,18570
3446974,Tangua,-22.73028,-42.71417,BR,23740
3446979,Tanabi,-20.62639,-49.64917,BR,18227
3447005,Tambau,-21.705,-47.27444,BR,19956
3447059,Taiobeiras,-15.80778,-42.23306,BR,24351
3447186,Taboao da Serra,-23.62611,-46.79167,BR,214523
3447212,Suzano,-23.5425,-46.31083,BR,283314
3447259,Sumare,-22.82194,-47.26694,BR,227977
3447399,Sorocaba,-23.50167,-47.45806,BR,558862
3447423,Soledade,-28.81833,-52.51028,BR,24791
3447437,Socorro,-22.59139,-46.52889,BR,24272
3447473,Sobradinho,-12.83333,-39.1,BR,19304
3447562,Simao Dias,-10.73833,-37.81111,BR,18385
3447591,Silva Jardim,-22.65083,-42.39167,BR,16888
3447597,Sidrolandia,-20.93194,-54.96139,BR,16878
3447624,Sete Lagoas,-19.46583,-44.24667,BR,201334
3447651,Sertaozinho,-21.13778,-47.99028,BR,99211
3447690,Serrinha,-11.66417,-39.0075,BR,49078
3447718,Serra Negra,-22.61222,-46.70056,BR,22632
3447720,Serrana,-21.21139,-47.59556,BR,39826
3447779,Serra,-20.12861,-40.30778,BR,394153
3447785,Seropedica,-22.74389,-43.7075,BR,54846
3447839,Senhor do Bonfim,-10.46139,-40.18944,BR,48471
3447854,Senador Canedo,-16.70806,-49.09306,BR,61800
3447928,Seabra,-12.41713,-41.77049,BR,16764
3447929,Schroeder,-26.4125,-49.07306,BR,15505
3447961,Saubara,-12.7375,-38.76861,BR,15662
3447969,Sarzedo,-20.03528,-44.14472,BR,20798
3447997,Sarandi,-27.94389,-52.92306,BR,15158
3447998,Sarandi,-23.44361,-51.87389,BR,84697
3448011,Saquarema,-22.92,-42.51028,BR,62056
3448031,Sapucaia,-29.83333,-51.15,BR,130937
3448063,Sapiranga,-29.63806,-51.00694,BR,76051
3448136,Sao Vicente,-23.96306,-46.39194,BR,324457
3448207,Sao Sepe,-30.16056,-53.56528,BR,19181
3448219,Sao Sebastiao do Passe,-12.5125,-38.49528,BR,31049
3448221,Sao Sebastiao do Paraiso,-20.91694,-46.99139,BR,68654
3448227,Sao Sebastiao do Cai,-29.58667,-51.37556,BR,19012
3448257,Sao Sebastiao,-23.76,-45.40972,BR,76367
3448300,Sao Roque,-23.52917,-47.13528,BR,50540
3448351,Sao Pedro da Aldeia,-22.83917,-42.10278,BR,55014
3448403,Sao Pedro,-22.54861,-47.91389,BR,27068
3448439,Sao Paulo,-23.5475,-46.63611,BR,10021295
3448453,Sao Miguel do Iguacu,-25.34806,-54.23778,BR,15434
3448455,Sao Miguel do Araguaia,-13.275,-50.16278,BR,18809
3448502,Sao Mateus do Sul,-25.87417,-50.38278,BR,24904
3448519,Sao Mateus,-18.72011,-39.85891,BR,77117
3448533,Sao Marcos,-28.97111,-51.06806,BR,18591
3448545,Sao Manuel,-22.73111,-48.57056,BR,33587
3448552,Sao Luiz Gonzaga,-28.40833,-54.96083,BR,31798
3448558,Sao Luis de Montes Belos,-16.525,-50.37222,BR,23619
3448596,Sao Lourenco do Sul,-31.36528,-51.97833,BR,25340
3448616,Sao Lourenco,-22.11639,-45.05444,BR,41143
3448622,Sao Leopoldo,-29.76028,-51.14722,BR,209229
3448632,Sao Jose dos Pinhais,-25.5302,-49.20836,BR,124224
3448636,Sao Jose dos Campos,-23.17944,-45.88694,BR,613764
3448639,Sao Jose do Rio Preto,-20.81972,-49.37944,BR,374699
3448640,Sao Jose do Rio Pardo,-21.59556,-46.88861,BR,46989
3448742,Sao Jose,-28.21171,-49.1632,BR,200000
3448825,Sao Joaquim da Barra,-20.58139,-47.85472,BR,42720
3448828,Sao Joaquim,-28.29389,-49.93167,BR,16250
3448846,Sao Joao Nepomuceno,-21.54,-43.01056,BR,23154
3448877,Sao Joao de Meriti,-22.80389,-43.37222,BR,454849
3448879,Sao Joao del Rei,-21.13556,-44.26167,BR,78592
3448902,Sao Joao da Boa Vista,-21.96917,-46.79806,BR,76540
3448903,Sao Joao da Barra,-21.64028,-41.05111,BR,20606
3449045,Sao Jeronimo,-29.95917,-51.72222,BR,17056
3449053,Sao Gotardo,-19.31111,-46.04889,BR,34145
3449056,Sao Goncalo do Sapucai,-21.89222,-45.59528,BR,19487
3449099,Sao Gabriel,-30.33639,-54.32,BR,55434
3449112,Sao Francisco do Sul,-26.24333,-48.63806,BR,36224
3449116,Sao Francisco do Conde,-12.6275,-38.68,BR,24614
3449176,Sao Francisco,-15.94861,-44.86444,BR,33033
3449195,Sao Fidelis,-21.64611,-41.74694,BR,27793
3449310,Sao Cristovao,-11.01472,-37.20639,BR,71539
3449319,Sao Carlos,-22.0175,-47.89083,BR,205035
3449324,Sao Caetano do Sul,-23.62306,-46.55111,BR,136453
3449340,Sao Borja,-28.66056,-56.00444,BR,59613
3449344,Sao Bernardo do Campo,-23.69389,-46.565,BR,743372
3449350,Sao Bento do Sul,-26.25028,-49.37861,BR,77597
3449427,Santos Dumont,-21.45667,-43.5525,BR,41582
3449433,Santos,-23.96083,-46.33361,BR,411403
3449467,Santo Estevao,-12.43028,-39.25139,BR,27279
3449500,Santo Antonio do Monte,-20.08722,-45.29361,BR,22592
3449516,Santo Antonio do Amparo,-20.94639,-44.91889,BR,16730
3449518,Santo Antonio de Posse,-22.60611,-46.91944,BR,18148
3449519,Santo Antonio de Padua,-21.53944,-42.18028,BR,33076
3449521,Santo Antonio de Jesus,-12.96889,-39.26139,BR,73957
3449529,Santo Antonio da Platina,-23.295,-50.07722,BR,35260
3449696,Santo Angelo,-28.29917,-54.26306,BR,64606
3449701,Santo Andre,-23.66389,-46.53833,BR,662373
3449707,Santo Anastacio,-21.83833,-51.61028,BR,17233
3449711,Santo Amaro da Imperatriz,-27.68806,-48.77861,BR,18418
3449720,Santo Amaro,-12.54667,-38.71194,BR,46748
3449741,Santiago,-29.19167,-54.86722,BR,46611
3449747,Santa Vitoria do Palmar,-33.51889,-53.36806,BR,27775
3449793,Santa Rosa de Viterbo,-21.47278,-47.36306,BR,21473
3449822,Santa Rosa,-27.87083,-54.48139,BR,58957
3449847,Santa Rita do Sapucai,-22.25222,-45.70333,BR,28765
3449851,Santa Rita do Passa Quatro,-21.71028,-47.47806,BR,24578
3449933,Santana do Paraiso,-19.36361,-42.56861,BR,25515
3449936,Santana do Livramento,-30.89083,-55.53278,BR,89694
3449948,Santana de Parnaiba,-23.44417,-46.91778,BR,98989
3450063,Santa Maria da Vitoria,-13.39472,-44.18861,BR,23488
3450083,Santa Maria,-29.68417,-53.80694,BR,249219
3450144,Santa Luzia,-19.76972,-43.85139,BR,243503
3450157,Santaluz,-11.25583,-39.37472,BR,24739
3450188,Santa Isabel,-23.31556,-46.22139,BR,33709
3450206,Santa Helena de Goias,-17.81361,-50.59694,BR,34254
3450225,Santa Gertrudes,-22.45667,-47.53028,BR,18490
3450232,Santa Fe do Sul,-20.21111,-50.92583,BR,25802
3450269,Santa Cruz do Sul,-29.7175,-52.42583,BR,106113
3450272,Santa Cruz do Rio Pardo,-22.89889,-49.6325,BR,37336
3450283,Santa Cruz das Palmeiras,-21.82694,-47.24861,BR,25800
3450288,Santa Cruz Cabralia,-16.27806,-39.02472,BR,19545
3450376,Santa Cecilia,-26.96083,-50.42694,BR,15092
3450404,Santa Barbara d'Oeste,-22.75361,-47.41361,BR,188000
3450554,Salvador,-12.97111,-38.51083,BR,2711840
3450563,Salto de Pirapora,-23.64889,-47.57333,BR,32227
3450594,Salto,-23.20083,-47.28694,BR,98387
3450671,Salinas,-16.17028,-42.29028,BR,25746
3450759,Sacramento,-19.86528,-47.44,BR,16982
3450832,Ruy Barbosa,-12.28389,-40.49389,BR,21093
3450843,Rubiataba,-15.16444,-49.80333,BR,16128
3450873,Rosario do Sul,-30.25833,-54.91417,BR,36721
3450909,Rondonopolis,-16.47083,-54.63556,BR,152912
3450963,Rolante,-29.65056,-50.57583,BR,15594
3450964,Rolandia,-23.30972,-51.36917,BR,51004
3451051,Rio Verde de Mato Grosso,-18.91806,-54.84417,BR,16613
3451071,Rio Real,-11.48472,-37.93278,BR,24005
3451102,Rio Pardo,-29.98972,-52.37806,BR,26998
3451121,Rio Negro,-26.10583,-49.7975,BR,23006
3451124,Rio Negrinho,-26.25444,-49.51833,BR,41914
3451134,Rio Grande da Serra,-23.74417,-46.39833,BR,38161
3451138,Rio Grande,-32.035,-52.09861,BR,187838
3451152,Rio do Sul,-27.21417,-49.64306,BR,51944
3451190,Rio de Janeiro,-22.90278,-43.2075,BR,6023699
3451202,Rio das Pedras,-22.84333,-47.60611,BR,23722
3451205,Rio das Ostras,-22.52694,-41.945,BR,100000
3451234,Rio Claro,-22.41139,-47.56139,BR,180147
3451241,Rio Brilhante,-21.80194,-54.54639,BR,18837
3451242,Rio Branco do Sul,-25.19,-49.31417,BR,26441
3451261,Rio Bonito,-22.70861,-42.60972,BR,35997
3451328,Ribeirao Preto,-21.1775,-47.81028,BR,619746
3451329,Ribeirao Pires,-23.71056,-46.41333,BR,111888
3451353,Ribeirao das Neves,-19.76694,-44.08667,BR,406802
3451357,Ribeirao da Ilha,-27.69934,-48.53219,BR,21000
3451383,Ribeira do Pombal,-10.83444,-38.53583,BR,28235
3451474,Riachao do Jacuipe,-11.80694,-39.38556,BR,16911
3451650,Resplendor,-19.32556,-41.25528,BR,15131
3451668,Resende,-22.46889,-44.44667,BR,111514
3451704,Registro,-24.4875,-47.84361,BR,45697
3451709,Regente Feijo,-22.22139,-51.30278,BR,17218
3451856,Rancharia,-22.22917,-50.89306,BR,25530
3451931,Quirinopolis,-18.44833,-50.45167,BR,32104
3452073,Queimados,-22.71611,-43.55528,BR,135741
3452141,Quatro Barras,-25.36556,-49.07694,BR,17526
3452179,Quarai,-30.3875,-56.45139,BR,23229
3452216,Prudentopolis,-25.21306,-50.97778,BR,19611
3452233,Propria,-10.21111,-36.84028,BR,23786
3452237,Promissao,-21.53667,-49.85806,BR,27031
3452320,Presidente Venceslau,-21.87611,-51.84389,BR,34026
3452324,Presidente Prudente,-22.12556,-51.38889,BR,209502
3452331,Presidente Epitacio,-21.76333,-52.11556,BR,38742
3452440,Prata,-19.30722,-48.92417,BR,19896
3452465,Praia Grande,-24.00583,-46.40278,BR,250027
3452483,Prado,-17.34111,-39.22083,BR,15464
3452525,Pouso Alegre,-22.23,-45.93639,BR,115201
3452599,Posse,-14.09306,-46.36944,BR,20003
3452623,Porto Uniao,-26.23806,-51.07833,BR,28907
3452640,Porto Seguro,-16.44972,-39.06472,BR,123173
3452775,Porto Ferreira,-21.85389,-47.47917,BR,49127
3452779,Porto Feliz,-23.21472,-47.52389,BR,41015
3452925,Porto Alegre,-30.03306,-51.23,BR,1372741
3452982,Portao,-29.70167,-51.24194,BR,21051
3453014,Porangatu,-13.44083,-49.14861,BR,32758
3453060,Pontes e Lacerda,-15.22611,-59.33528,BR,29381
3453078,Ponte Nova,-20.41639,-42.90861,BR,48187
3453150,Ponta Pora,-22.53611,-55.72556,BR,55763
3453171,Pontal,-21.0225,-48.03722,BR,32566
3453186,Ponta Grossa,-25.095,-50.16194,BR,292177
3453240,Pompeu,-19.22444,-44.93528,BR,25277
3453242,Pompeia,-22.10861,-50.17167,BR,18015
3453245,Pomerode,-26.74056,-49.17694,BR,21898
3453303,Pocos de Caldas,-21.78778,-46.56139,BR,146588
3453315,Pocone,-16.25667,-56.62278,BR,21484
3453337,Pocoes,-14.52972,-40.36528,BR,35254
3453406,Poa,-23.52806,-46.34472,BR,107432
3453420,Planaltina,-15.45278,-47.61417,BR,88853
3453435,Piuma,-20.83778,-40.72194,BR,17634
3453439,Piui,-20.46528,-45.95806,BR,27327
3453457,Pitangui,-19.68278,-44.89028,BR,18858
3453467,Pitangueiras,-21.00944,-48.22167,BR,28540
3453478,Pitanga,-24.75722,-51.76139,BR,18652
3453494,Piritiba,-11.73028,-40.55528,BR,16230
3453503,Pires do Rio,-17.29972,-48.27944,BR,24822
3453535,Piraquara,-25.44227,-49.06795,BR,41161
3453542,Pirapozinho,-22.27528,-51.5,BR,21709
3453546,Pirapora,-17.345,-44.94194,BR,51656
3453605,Pirajui,-21.99861,-49.45722,BR,17503
3453610,Piraju,-23.19361,-49.38389,BR,25270
3453622,Pirai do Sul,-24.52611,-49.94861,BR,16409
3453635,Pirai,-22.62917,-43.89806,BR,19105
3453639,Pirassununga,-21.99611,-47.42583,BR,60413
3453643,Piracicaba,-22.72528,-47.64917,BR,342209
3453659,Piracanjuba,-17.30278,-49.01667,BR,16736
3453661,Piracaia,-23.05389,-46.35806,BR,26075
3453767,Pinheiral,-22.51278,-44.00056,BR,19469
3453777,Pinhao,-25.69556,-51.65972,BR,15141
3453807,Espirito Santo do Pinhal,-22.11583,-46.68278,BR,37448
3453827,Pindobacu,-10.74167,-40.36083,BR,17229
3453837,Pindamonhangaba,-22.92389,-45.46167,BR,132218
3453896,Pilar do Sul,-23.81306,-47.71639,BR,19107
3453926,Piedade,-23.71194,-47.42778,BR,27912
3454031,Petropolis,-22.505,-43.17861,BR,272691
3454061,Peruibe,-24.32,-46.99833,BR,63030
3454131,Pereira Barreto,-20.63833,-51.10917,BR,22537
3454139,Perdoes,-21.09083,-45.09139,BR,17821
3454213,Penha,-26.76944,-48.64583,BR,20096
3454231,Penedo,-10.29028,-36.58639,BR,42097
3454235,Penapolis,-21.41972,-50.0775,BR,54477
3454244,Pelotas,-31.77194,-52.3425,BR,320674
3454358,Pedro Leopoldo,-19.61806,-44.04306,BR,49261
3454407,Pedreira,-22.74194,-46.90139,BR,39198
3454578,Pedra Azul,-16.00528,-41.29722,BR,20899
3454620,Pederneiras,-22.35167,-48.775,BR,38020
3454690,Paulinia,-22.76111,-47.15417,BR,65595
3454763,Patrocinio,-18.94389,-46.9925,BR,71963
3454783,Patos de Minas,-18.57889,-46.51806,BR,126234
3454818,Pato Branco,-26.22861,-52.67056,BR,65754
3454827,Paty do Alferes,-22.42861,-43.41861,BR,20659
3454847,Passos,-20.71889,-46.60972,BR,98752
3454857,Passo Fundo,-28.26278,-52.40667,BR,179529
3454954,Parobe,-29.62861,-50.83472,BR,48559
3455036,Paraty,-23.21778,-44.71306,BR,15118
3455051,Paranavai,-23.07306,-52.46528,BR,72848
3455061,Paranapanema,-23.3863,-48.72441,BR,16215
3455065,Paranaiba,-19.67722,-51.19083,BR,32217
3455070,Paranagua,-25.51626,-48.52537,BR,141013
3455141,Paraiba do Sul,-22.15847,-43.29321,BR,35517
3455152,Paraguacu Paulista,-22.41278,-50.57583,BR,39120
3455155,Paraguacu,-21.54722,-45.7375,BR,15741
3455161,Para de Minas,-19.86028,-44.60833,BR,75786
3455168,Paracatu,-17.22222,-46.87472,BR,70753
3455170,Paracambi,-22.60829,-43.7084,BR,36098
3455281,Panambi,-28.2925,-53.50167,BR,30407
3455298,Palotina,-24.28389,-53.84,BR,23059
3455342,Palmital,-22.78889,-50.2175,BR,18539
3455416,Palmeira das Missoes,-27.89944,-53.31361,BR,30954
3455425,Palmeira,-25.42944,-50.00639,BR,18630
3455459,Palmas,-26.48417,-51.99056,BR,39150
3455478,Palhoca,-27.64528,-48.66778,BR,122423
3455553,Paicandu,-23.4575,-52.04861,BR,34365
3455580,Padre Bernardo,-15.16595,-48.28281,BR,16118
3455671,Ouro Preto,-20.39484,-43.50517,BR,63678
3455689,Ouro Branco,-20.52334,-43.69486,BR,26687
3455729,Ourinhos,-22.97889,-49.87056,BR,97799
3455756,Osvaldo Cruz,-21.79667,-50.87861,BR,25746
3455769,Osorio,-29.88667,-50.26972,BR,34628
3455775,Osasco,-23.5325,-46.79167,BR,677856
3455784,Orleans,-28.35889,-49.29139,BR,16422
3455785,Orlandia,-20.72028,-47.88667,BR,44766
3455908,Oliveira,-20.69639,-44.82722,BR,34710
3455923,Olimpia,-20.73722,-48.91472,BR,45199
3456060,Novo Horizonte,-21.46806,-49.22083,BR,30158
3456068,Novo Hamburgo,-29.67833,-51.13056,BR,253841
3456102,Nova Vicosa,-17.89194,-39.37194,BR,55980
3456110,Nova Venecia,-18.71056,-40.40056,BR,28362
3456125,Nova Prata,-28.78389,-51.61,BR,17943
3456127,Nova Petropolis,-29.37639,-51.11444,BR,16049
3456137,Nova Olimpia,-14.79722,-57.28806,BR,19274
3456138,Nova Odessa,-22.7775,-47.29583,BR,49432
3456147,Nova Lima,-19.98556,-43.84667,BR,88399
3456160,Nova Iguacu,-22.75917,-43.45111,BR,1002118
3456164,Nova Granada,-20.53389,-49.31417,BR,15715
3456166,Nova Friburgo,-22.28194,-42.53111,BR,153361
3456176,Nova Era,-19.75,-43.0375,BR,15595
3456223,Nossa Senhora do Socorro,-10.855,-37.12611,BR,163993
3456240,Nossa Senhora da Gloria,-10.21833,-37.42028,BR,18612
3456283,Niteroi,-22.88333,-43.10361,BR,456456
3456285,Niquelandia,-14.47389,-48.45972,BR,27541
3456290,Nilopolis,-22.8075,-43.41389,BR,147281
3456322,Neropolis,-16.40639,-49.21861,BR,21870
3456324,Nepomuceno,-21.23342,-45.23488,BR,18911
3456366,Nazare,-13.035,-39.01444,BR,25604
3456368,Navirai,-23.065,-54.19056,BR,36452
3456370,Navegantes,-26.89889,-48.65417,BR,47781
3456398,Nanuque,-17.83917,-40.35389,BR,37824
3456412,Muzambinho,-21.37583,-46.52556,BR,16253
3456483,Muritiba,-12.91667,-39.25,BR,22388
3456500,Muriae,-21.13056,-42.36639,BR,91173
3456593,Mucuri,-18.08639,-39.55083,BR,26775
3456696,Morro do Chapeu,-11.54852,-41.15804,BR,21670
3456724,Morro Agudo,-20.73139,-48.05778,BR,25265
3456735,Morrinhos,-17.73111,-49.09944,BR,34143
3456814,Montes Claros,-16.735,-43.86167,BR,332379
3456816,Monte Santo de Minas,-21.18972,-46.98028,BR,16617
3456826,Montenegro,-29.68861,-51.46111,BR,54057
3456827,Monte Mor,-22.94667,-47.31583,BR,40290
3456848,Monte Carmelo,-18.72472,-47.49861,BR,44041
3456863,Monte Azul Paulista,-20.90722,-48.64139,BR,18117
3456866,Monte Aprazivel,-20.7725,-49.71417,BR,16308
3456873,Monte Alto,-21.26111,-48.49639,BR,41893
3456944,Mongagua,-24.09306,-46.62083,BR,45930
3456998,Mogi Mirim,-22.43194,-46.95778,BR,78244
3457000,Mogi-Gaucu,-22.3677,-46.94552,BR,128865
3457001,Mogi das Cruzes,-23.52278,-46.18833,BR,325746
3457025,Mococa,-21.46778,-47.00472,BR,59654
3457107,Mirandopolis,-21.13361,-51.10167,BR,23378
3457133,Miracema,-21.41222,-42.19667,BR,26684
3457147,Mineiros,-17.56944,-52.55111,BR,38951
3457191,Miguel Pereira,-22.45389,-43.46889,BR,23850
3457192,Miguelopolis,-20.17944,-48.03194,BR,18262
3457247,Mendes,-22.52667,-43.73278,BR,17308
3457359,Medianeira,-25.29528,-54.09389,BR,34069
3457360,Medeiros Neto,-17.37389,-40.22056,BR,15254
3457381,Maua,-23.66778,-46.46139,BR,386069
3457393,Matozinhos,-19.55778,-44.08139,BR,30843
3457484,Mateus Leme,-19.98639,-44.42778,BR,24890
3457509,Matao,-21.60333,-48.36583,BR,72468
3457528,Mata de Sao Joao,-12.53028,-38.29917,BR,26679
3457566,Mascote,-15.56306,-39.3025,BR,18863
3457595,Martinopolis,-22.14583,-51.17083,BR,18488
3457671,Maringa,-23.42528,-51.93861,BR,311724
3457692,Marilia,-22.21389,-49.94583,BR,212218
3457708,Marica,-22.91944,-42.81861,BR,79551
3457736,Mariana,-20.37778,-43.41611,BR,45236
3457741,Marialva,-23.485,-51.79167,BR,26000
3457772,Marechal Candido Rondon,-24.55611,-54.05667,BR,43028
3457817,Marau,-28.44917,-52.2,BR,26860
3457819,Marataizes,-21.04333,-40.82444,BR,25397
3457850,Maragogipe,-12.77778,-38.91944,BR,20921
3457854,Maracas,-13.44111,-40.43083,BR,22049
3457859,Maracaju,-21.61444,-55.16833,BR,22690
3457950,Manhumirim,-20.35778,-41.95806,BR,15544
3457952,Manhuacu,-20.25806,-42.03361,BR,54607
3457991,Mangaratiba,-22.95972,-44.04056,BR,27022
3458049,Mandaguari,-23.5475,-51.67083,BR,38238
3458131,Mairipora,-23.31861,-46.58667,BR,54415
3458132,Mairinque,-23.54583,-47.18333,BR,44456
3458147,Mafra,-26.11139,-49.80528,BR,40081
3458211,Machado,-21.67472,-45.91972,BR,33002
3458245,Macatuba,-22.50222,-48.71139,BR,16179
3458266,Macae,-22.37083,-41.78694,BR,143029
3458329,Luziania,-16.2525,-47.95028,BR,143601
3458397,Lucas,-16.33333,-55.93333,BR,27665
3458406,Louveira,-23.08639,-46.95056,BR,31093
3458425,Lorena,-22.73083,-45.12472,BR,76506
3458449,Londrina,-23.31028,-51.16278,BR,471832
3458479,Loanda,-22.92306,-53.13722,BR,18233
3458481,Livramento do Brumado,-13.65145,-41.84564,BR,19914
3458494,Lins,-21.67861,-49.7425,BR,69451
3458498,Linhares,-19.39111,-40.07222,BR,105075
3458575,Limeira,-22.56472,-47.40167,BR,289665
3458632,Leopoldina,-21.53194,-42.64306,BR,46742
3458645,Lencois Paulista,-22.59861,-48.80028,BR,57375
3458662,Leme,-22.18556,-47.39028,BR,81209
3458696,Lavras,-21.24528,-44.99972,BR,81472
3458746,Laranjeiras do Sul,-25.40778,-52.41611,BR,18424
3458778,Laranjeiras,-10.80639,-37.17,BR,23251
3458786,Laranjal Paulista,-23.04972,-47.83667,BR,21264
3458826,Lapa,-25.76972,-49.71583,BR,25621
3458902,Lajinha,-20.15139,-41.62278,BR,15729
3458930,Lages,-27.81611,-50.32611,BR,164676
3459035,Lajeado,-29.46694,-51.96139,BR,65407
3459094,Laguna,-28.4825,-48.78083,BR,39711
3459126,Lagoa Vermelha,-28.20861,-51.52583,BR,24445
3459138,Lagoa Santa,-19.63006,-43.9009,BR,38486
3459251,Lagoa da Prata,-20.0225,-45.54361,BR,43118
3459342,Lagarto,-10.91722,-37.65,BR,45445
3459352,Ladario,-19.00472,-57.60167,BR,15790
3459462,Jundiai,-23.18639,-46.88417,BR,321589
3459495,Julio de Castilhos,-29.22694,-53.68167,BR,20388
3459505,Juiz de Fora,-21.76417,-43.35028,BR,470193
3459550,Juatuba,-19.95194,-44.34278,BR,24537
3459667,Jose Bonifacio,-21.05278,-49.68833,BR,27828
3459712,Joinville,-26.30444,-48.84556,BR,461304
3459785,Joao Pinheiro,-17.7425,-46.1725,BR,28080
3459796,Joao Monlevade,-19.81,-43.17361,BR,72762
3459869,Joacaba,-27.17806,-51.50472,BR,23516
3459922,Jeremoabo,-10.075,-38.48083,BR,16642
3459925,Jequitinhonha,-16.43389,-41.00333,BR,15463
3459943,Jequie,-13.85875,-40.08512,BR,127475
3460005,Jau,-22.29639,-48.55778,BR,119206
3460064,Jatai,-17.87939,-51.72166,BR,76547
3460068,Jarinu,-23.10139,-46.72833,BR,17899
3460071,Jardinopolis,-21.01778,-47.76389,BR,34718
3460087,Jardim,-21.48028,-56.13806,BR,23780
3460102,Jaragua do Sul,-26.48611,-49.06667,BR,130130
3460107,Jaragua,-15.75694,-49.33444,BR,30409
3460132,Japeri,-22.64306,-43.65333,BR,95101
3460148,Januaria,-15.48866,-44.35988,BR,34811
3460170,Jandira,-23.5275,-46.9025,BR,113605
3460172,Jandaia do Sul,-23.60306,-51.64333,BR,17507
3460174,Janauba,-15.8025,-43.30889,BR,56572
3460186,Jales,-20.26889,-50.54583,BR,43831
3460200,Jaguariuna,-22.70556,-46.98583,BR,31717
3460214,Jaguariaiva,-24.24423,-49.70932,BR,30626
3460225,Jaguarari,-10.26389,-40.19583,BR,22612
3460232,Jaguarao,-32.56611,-53.37583,BR,29613
3460242,Jaguaquara,-13.53056,-39.97083,BR,41498
3460267,Jacutinga,-22.28556,-46.61222,BR,18469
3460344,Jacobina,-11.18143,-40.51372,BR,47637
3460355,Jaciara,-15.96528,-54.96833,BR,22737
3460362,Jacarezinho,-23.16056,-49.96944,BR,35090
3460370,Jacarei,-23.30528,-45.96583,BR,213110
3460441,Jaboticabal,-21.25472,-48.32222,BR,69394
3460484,Ivoti,-29.59111,-51.16056,BR,18171
3460511,Ituverava,-20.33944,-47.78056,BR,36997
3460513,Iturama,-19.72806,-50.19556,BR,29805
3460516,Itupeva,-23.15306,-47.05778,BR,20605
3460522,Itumbiara,-18.41917,-49.21528,BR,79582
3460523,Ituiutaba,-18.97428,-49.46212,BR,85345
3460530,Itubera,-13.73222,-39.14917,BR,19887
3460535,Itu,-23.26417,-47.29917,BR,137586
3460542,Itororo,-15.11694,-40.07028,BR,17324
3460584,Itauna,-20.07528,-44.57639,BR,77400
3460594,Itatinga,-23.10167,-48.61583,BR,15696
3460598,Itatiba,-23.00583,-46.83889,BR,67934
3460620,Itarare,-24.1125,-49.33167,BR,44809
3460629,Itaqui,-29.12528,-56.55306,BR,34631
3460644,Itaquaquecetuba,-23.48611,-46.34833,BR,336679
3460648,Itapuranga,-15.56222,-49.94861,BR,19709
3460671,Itapolis,-21.59556,-48.81278,BR,34552
3460699,Itapira,-22.43611,-46.82167,BR,61607
3460718,Itapevi,-23.54889,-46.93417,BR,201748
3460723,Itapeva,-23.98222,-48.87556,BR,62957
3460728,Itapetininga,-23.59167,-48.05306,BR,126243
3460730,Itapetinga,-15.24889,-40.24778,BR,59721
3460733,Itaperuna,-21.205,-41.88778,BR,84435
3460734,Itaperucu,-25.22,-49.34778,BR,26546
3460738,Itapemirim,-21.01111,-40.83389,BR,17536
3460740,Itapema,-27.09028,-48.61139,BR,36761
3460748,Itapecerica da Serra,-23.71694,-46.84917,BR,151605
3460752,Itapecerica,-20.4725,-45.12556,BR,16684
3460764,Itaparica,-12.88833,-38.67861,BR,20100
3460773,Itapaci,-14.95083,-49.54944,BR,16117
3460774,Itaocara,-21.66917,-42.07611,BR,16762
3460791,Itanhaem,-24.18306,-46.78889,BR,90385
3460813,Itambe,-15.245,-40.62444,BR,23558
3460825,Itamarandiba,-17.85722,-42.85889,BR,18063
3460826,Itamaraju,-17.03917,-39.53111,BR,47628
3460831,Itajuipe,-14.67806,-39.375,BR,15516
3460834,Itajuba,-22.42556,-45.45278,BR,81870
3460845,Itajai,-26.90778,-48.66194,BR,155716
3460887,Itai,-23.41778,-49.09056,BR,22304
3460899,Itaguai,-22.85222,-43.77528,BR,100752
3460949,Itabuna,-14.78556,-39.28028,BR,205660
3460950,Itaborai,-22.74444,-42.85944,BR,182498
3460954,Itabirito,-20.25333,-43.80139,BR,39452
3460960,Itabira,-19.61917,-43.22694,BR,99496
3460963,Itaberai,-16.02028,-49.81028,BR,22129
3460966,Itaberaba,-12.5275,-40.30694,BR,47301
3460971,Itabaianinha,-11.27389,-37.79,BR,17149
3460974,Itabaiana,-10.685,-37.42528,BR,63888
3461013,Irece,-11.30417,-41.85583,BR,63626
3461017,Irati,-25.46722,-50.65111,BR,45830
3461055,Iracemapolis,-22.58056,-47.51861,BR,16795
3461090,Ipora,-16.44194,-51.11778,BR,28254
3461124,Ipira,-12.15833,-39.73722,BR,27217
3461129,Ipiau,-14.13449,-39.73948,BR,38762
3461134,Ipero,-23.35028,-47.68861,BR,17160
3461144,Ipatinga,-19.46833,-42.53667,BR,228746
3461151,Ipameri,-17.72194,-48.15972,BR,18607
3461153,Ipaba,-19.41361,-42.41944,BR,15970
3461194,Inhumas,-16.35778,-49.49611,BR,44058
3461311,Indaiatuba,-23.08842,-47.2119,BR,179911
3461316,Indaial,-26.89778,-49.23167,BR,44359
3461368,Imbituva,-25.23,-50.60444,BR,19671
3461370,Imbituba,-28.24,-48.67028,BR,43450
3461408,Ilheus,-14.79364,-39.03949,BR,155499
3461411,Ilha Solteira,-20.43278,-51.3425,BR,24997
3461425,Ilhabela,-23.77806,-45.35806,BR,32892
3461444,Ijui,-28.38778,-53.91472,BR,71202
3461465,Iguape,-24.70806,-47.55528,BR,23784
3461481,Igrejinha,-29.57444,-50.79028,BR,28679
3461498,Igarape,-20.07028,-44.30167,BR,21427
3461499,Igarapava,-20.03833,-47.74694,BR,29057
3461501,Igaracu do Tiete,-22.50917,-48.55778,BR,22758
3461519,Icara,-28.71333,-49.3,BR,51454
3461525,Ibotirama,-12.18528,-43.22056,BR,17354
3461528,Ibiuna,-23.65639,-47.2225,BR,22860
3461550,Ibitinga,-21.75778,-48.82889,BR,49074
3461563,Ibirite,-20.02194,-44.05889,BR,141374
3461565,Ibirataia,-14.06694,-39.64056,BR,19942
3461576,Ibirama,-27.05694,-49.51778,BR,18357
3461588,Ibipora,-23.26917,-51.04806,BR,44790
3461606,Ibicarai,-14.865,-39.5875,BR,19574
3461620,Ibia,-19.47833,-46.53889,BR,18428
3461625,Ibate,-21.95472,-47.99667,BR,29550
3461628,Ibaiti,-23.84861,-50.18778,BR,25796
3461638,Iacu,-12.76722,-40.21167,BR,22664
3461655,Hortolandia,-22.85833,-47.22,BR,203533
3461680,Herval,-32.02361,-53.39556,BR,18063
3461724,Gurupi,-11.72917,-49.06861,BR,64789
3461763,Guaxupe,-21.30528,-46.71278,BR,47889
3461786,Guarulhos,-23.46278,-46.53333,BR,1169577
3461789,Guaruja,-23.99306,-46.25639,BR,310424
3461824,Guariba,-21.36,-48.22833,BR,30464
3461857,Guaratuba,-25.88278,-48.57472,BR,18906
3461859,Guaratingueta,-22.81639,-45.1925,BR,105880
3461871,Guararema,-23.415,-46.035,BR,23572
3461874,Guararapes,-21.26083,-50.64278,BR,27557
3461879,Guarapuava,-25.39048,-51.46541,BR,150850
3461888,Guarapari,-20.65367,-40.50204,BR,100925
3461910,Guaranesia,-21.29917,-46.8025,BR,17437
3461914,Guaramirim,-26.47306,-49.00278,BR,21422
3461935,Guara,-20.42833,-47.82417,BR,18263
3461941,Guapore,-28.84556,-51.89028,BR,20050
3461949,Guapimirim,-22.53722,-42.98194,BR,31202
3461958,Guanhaes,-18.775,-42.9325,BR,23727
3461973,Guanambi,-14.22333,-42.78139,BR,58877
3461995,Guaira,-20.31833,-48.31056,BR,34092
3462022,Guacui,-20.77556,-41.67944,BR,19786
3462089,Gravatai,-29.94218,-50.99278,BR,238778
3462315,Governador Valadares,-18.85111,-41.94944,BR,250878
3462371,Goiatuba,-18.0125,-49.35472,BR,25925
3462374,Goias,-15.93444,-50.14028,BR,19098
3462376,Goianira,-16.49611,-49.42639,BR,22822
3462377,Goiania,-16.67861,-49.25389,BR,1171195
3462378,Goianesia,-15.3175,-49.1175,BR,47883
3462535,Gaspar,-26.93139,-48.95889,BR,33658
3462557,Garibaldi,-29.25611,-51.53361,BR,30364
3462580,Garca,-22.21056,-49.65611,BR,41302
3462601,Gandu,-13.74389,-39.48667,BR,21565
3462916,Frutal,-20.02472,-48.94056,BR,40931
3462956,Frederico Westphalen,-27.35917,-53.39444,BR,20896
3462964,Franco da Rocha,-23.32167,-46.72694,BR,108858
3462980,Francisco Morato,-23.28167,-46.74528,BR,171790
3462996,Francisco Beltrao,-26.08111,-53.055,BR,57618
3463011,Franca,-20.53861,-47.40083,BR,305041
3463030,Foz do Iguacu,-25.54778,-54.58806,BR,293523
3463066,Forquilhinha,-28.7475,-49.47222,BR,22998
3463140,Formosa,-15.53722,-47.33444,BR,81232
3463174,Formiga,-20.46444,-45.42639,BR,56404
3463237,Florianopolis,-27.59667,-48.54917,BR,412724
3463271,Flores da Cunha,-29.02889,-51.18167,BR,20521
3463422,Ferraz de Vasconcelos,-23.54083,-46.36861,BR,167900
3463432,Fernandopolis,-20.28389,-50.24639,BR,61931
3463478,Feira de Santana,-12.26667,-38.96667,BR,481911
3463605,Farroupilha,-29.225,-51.34778,BR,57650
3463698,Euclides da Cunha,-10.5075,-39.01583,BR,29738
3463762,Estrela,-28.06111,-50.93833,BR,24200
3463859,Esteio,-29.86139,-51.17917,BR,84902
3463865,Estancia Velha,-29.64833,-51.17389,BR,40390
3463900,Estancia,-11.26833,-37.43833,BR,55654
3463920,Esplanada,-11.79611,-37.945,BR,18859
3463939,Espinosa,-14.92611,-42.81917,BR,17548
3464008,Esmeraldas,-19.7625,-44.31389,BR,103206
3464073,Erechim,-27.63461,-52.2754,BR,96087
3464100,Entre Rios,-11.94194,-38.08444,BR,27405
3464255,Encruzilhada do Sul,-30.54389,-52.52194,BR,17199
3464274,Encantado,-29.23611,-51.86972,BR,16637
3464304,Embu Guacu,-23.83222,-46.81139,BR,76310
3464305,Embu,-23.64889,-46.85222,BR,221733
3464329,Eloi Mendes,-21.61,-45.56528,BR,19413
3464374,Duque de Caxias,-22.78556,-43.31167,BR,818329
3464460,Dourados,-22.22111,-54.80556,BR,162202
3464547,Dom Pedrito,-30.98278,-54.67306,BR,36911
3464579,Dois Vizinhos,-25.73361,-53.05722,BR,22766
3464618,Dois Corregos,-22.36611,-48.38028,BR,20974
3464688,Divinopolis,-20.14355,-44.89065,BR,193832
3464724,Diamantino,-14.40861,-56.44611,BR,15699
3464728,Diamantina,-18.24692,-43.60345,BR,37343
3464739,Diadema,-23.68611,-46.62278,BR,390633
3464809,Descalvado,-21.90389,-47.61944,BR,26137
3464891,Curvelo,-18.75639,-44.43083,BR,63954
3464974,Curitibanos,-27.28278,-50.58444,BR,32141
3464975,Curitiba,-25.42778,-49.27306,BR,1718421
3465038,Cuiaba,-15.59611,-56.09667,BR,521934
3465059,Cubatao,-23.895,-46.42528,BR,118410
3465083,Cruzeiro do Oeste,-23.785,-53.07333,BR,15057
3465090,Cruzeiro,-22.57316,-44.97108,BR,72022
3465105,Cruz das Almas,-12.67,-39.10194,BR,47844
3465108,Cruz Alta,-28.63861,-53.60639,BR,65275
3465164,Cristalina,-16.76769,-47.6153,BR,36531
3465196,Criciuma,-28.6775,-49.36972,BR,161954
3465209,Cravinhos,-21.34028,-47.72944,BR,32689
3465228,Coxim,-18.50667,-54.76,BR,30215
3465284,Cotia,-23.60389,-46.91917,BR,174828
3465320,Cosmopolis,-22.64583,-47.19611,BR,47772
3465329,Coruripe,-10.12556,-36.17556,BR,31427
3465342,Corumba,-19.00917,-57.65333,BR,96520
3465459,Coronel Vivida,-25.97972,-52.56778,BR,15841
3465476,Coronel Fabriciano,-19.51861,-42.62889,BR,100916
3465487,Coromandel,-18.47333,-47.20028,BR,22647
3465508,Cornelio Procopio,-23.18111,-50.64667,BR,48487
3465512,Corinto,-18.38083,-44.45639,BR,22121
3465524,Cordeiropolis,-22.48194,-47.45667,BR,25630
3465527,Cordeiro,-22.02861,-42.36083,BR,15601
3465624,Contagem,-19.93167,-44.05361,BR,627123
3465644,Conselheiro Lafaiete,-20.66028,-43.78611,BR,111596
3465671,Congonhas,-20.50525,-43.8588,BR,48819
3465713,Conde,-11.81361,-37.61056,BR,15557
3465721,Concordia,-27.23417,-52.02778,BR,55367
3465731,Conchal,-22.33028,-47.1725,BR,21351
3465748,Conceicao do Coite,-11.56389,-39.28278,BR,35171
3465758,Conceicao do Jacuipe,-12.31667,-38.76667,BR,21597
3465764,Conceicao das Alagoas,-19.91472,-48.38833,BR,16152
3465767,Conceicao da Feira,-12.50583,-38.99861,BR,15834
3465769,Conceicao da Barra,-18.59333,-39.73222,BR,19309
3465881,Colorado,-22.8375,-51.97306,BR,20449
3465927,Colombo,-25.29167,-49.22417,BR,217000
3465944,Colatina,-19.53944,-40.63056,BR,101190
3466041,Coaraci,-14.64083,-39.55111,BR,32344
3466062,Claudio,-20.44333,-44.76583,BR,21824
3466171,Cicero Dantas,-10.6,-38.38333,BR,18317
3466174,Cianorte,-23.66333,-52.605,BR,55994
3466261,Charqueadas,-29.95472,-51.62528,BR,32076
3466296,Chapeco,-27.09639,-52.61833,BR,160157
3466429,Cerquilho,-23.165,-47.74361,BR,35367
3466436,Ceres,-15.30833,-49.59833,BR,18759
3466481,Celso Ramos,-27.63444,-51.33639,BR,15162
3466537,Caxias do Sul,-29.16806,-51.17944,BR,381270
3466547,Caxambu,-21.97722,-44.9325,BR,22701
3466641,Catu,-12.35306,-38.37889,BR,39932
3466692,Catanduva,-21.13778,-48.97278,BR,109612
3466696,Catalao,-18.16583,-47.94639,BR,63544
3466698,Cataguases,-21.38917,-42.69667,BR,62618
3466704,Castro,-24.78927,-50.01225,BR,42091
3466723,Castelo,-20.60361,-41.18472,BR,20198
3466750,Cassilandia,-19.11333,-51.73417,BR,18497
3466763,Casimiro de Abreu,-22.48056,-42.20417,BR,19087
3466779,Cascavel,-24.95583,-53.45528,BR,257172
3466824,Casa Branca,-21.77389,-47.08639,BR,22497
3466902,Carmo do Paranaiba,-19.00083,-46.31611,BR,26537
3466903,Carmo do Cajuru,-20.18417,-44.77111,BR,16332
3466933,Carlos Barbosa,-29.2975,-51.50361,BR,19105
3466978,Carazinho,-28.28389,-52.78639,BR,59417
3466988,Caratinga,-19.78972,-42.13917,BR,60066
3466998,Carapicuiba,-23.52272,-46.835,BR,361112
3467012,Carangola,-20.73306,-42.02944,BR,25321
3467026,Carandai,-20.95361,-43.80639,BR,16657
3467081,Caraguatatuba,-23.62028,-45.41306,BR,90843
3467197,Capivari,-22.995,-47.50778,BR,35518
3467261,Capinzal,-27.34361,-51.61194,BR,23795
3467272,Capim Grosso,-11.38111,-40.01278,BR,17322
3467305,Capelinha,-17.69139,-42.51583,BR,20073
3467319,Capela,-10.50333,-37.05278,BR,16023
3467362,Capao da Canoa,-29.74556,-50.00972,BR,35896
3467371,Capao Bonito,-24.00583,-48.34944,BR,37206
3467452,Canoinhas,-26.17722,-50.39,BR,38862
3467467,Canoas,-29.91778,-51.18361,BR,328291
3467512,Cangucu,-31.395,-52.67556,BR,20134
3467530,Canela,-29.35622,-50.81357,BR,33528
3467542,Candido Mota,-22.74639,-50.38694,BR,28144
3467550,Candelaria,-29.66917,-52.78889,BR,30171
3467577,Canavieiras,-15.675,-38.94722,BR,26375
3467673,Campo Verde,-20.41667,-54.06667,BR,22806
3467677,Campos Novos,-27.40167,-51.225,BR,22563
3467680,Campos Gerais,-21.235,-45.75861,BR,22260
3467684,Campos do Jordao,-22.73944,-45.59139,BR,53319
3467687,Campos Belos,-13.03667,-46.77167,BR,15582
3467693,Campos,-21.75227,-41.33044,BR,387417
3467717,Campo Mourao,-24.04309,-52.37929,BR,75401
3467736,Campo Largo,-25.45955,-49.53014,BR,94668
3467747,Campo Grande,-20.44278,-54.64639,BR,729151
3467760,Campo Formoso,-10.5075,-40.32139,BR,23920
3467796,Campo Belo,-20.89722,-45.27722,BR,47491
3467865,Campinas,-22.90556,-47.06083,BR,1031554
3467877,Campina Grande do Sul,-25.30556,-49.05528,BR,31112
3467956,Cambui,-22.61222,-46.0575,BR,21246
3467978,Cambe,-23.27583,-51.27833,BR,91080
3467985,Cambara,-23.04639,-50.07361,BR,21380
3468014,Camaqua,-30.85111,-51.81222,BR,53169
3468023,Camanducaia,-22.75528,-46.14472,BR,17822
3468031,Camacari,-12.6975,-38.32417,BR,188758
3468100,Caldas Novas,-17.74431,-48.62789,BR,63675
3468121,Cajuru,-21.27528,-47.30417,BR,19539
3468157,Cajati,-24.73611,-48.12278,BR,27565
3468158,Cajamar,-23.35611,-46.87694,BR,56682
3468215,Caieiras,-23.36417,-46.74056,BR,87188
3468317,Caetite,-14.06944,-42.475,BR,27187
3468327,Caete,-19.88,-43.66972,BR,33231
3468376,Cachoeiro de Itapemirim,-20.84889,-41.11278,BR,187019
3468403,Cachoeirinha,-29.95111,-51.09389,BR,121084
3468425,Cachoeiras de Macacu,-22.4625,-42.65306,BR,46177
3468436,Cachoeira do Sul,-30.03917,-52.89389,BR,74694
3468535,Cachoeira,-12.61833,-38.95583,BR,16145
3468560,Cacapava do Sul,-30.51436,-53.48496,BR,17522
3468562,Cacapava,-23.10083,-45.70694,BR,72340
3468570,Cacador,-26.77528,-51.015,BR,63726
3468592,Cabreuva,-23.3075,-47.13278,BR,38738
3468615,Cabo Frio,-22.88717,-42.02622,BR,108239
3468704,Butia,-30.11972,-51.96222,BR,19494
3468720,Buritizeiro,-17.35111,-44.96222,BR,25103
3468732,Buritis,-15.61778,-46.42333,BR,16243
3468802,Buri,-23.7975,-48.59278,BR,15958
3468858,Buerarema,-14.95944,-39.29972,BR,16001
3468879,Brusque,-27.09795,-48.91281,BR,88284
3468893,Brumado,-14.20361,-41.66528,BR,41989
3468894,Brumadinho,-20.14333,-44.19972,BR,27563
3468899,Brotas,-22.28417,-48.12667,BR,18689
3468902,Brodosqui,-20.99139,-47.65861,BR,18366
